{"crs": {"type": "name", "properties": {"name": "urn:ogc:def:crs:EPSG::4326"}}, "type": "FeatureCollection", "features": [{"geometry": {"type": "Point", "coordinates": [6.641, 50.5382]}, "type": "Feature", "properties": {"CNTR_CODE": "DE", "NUTS_NAME": "Euskirchen", "LEVL_CODE": 3, "FID": "DEA28", "NUTS_ID": "DEA28"}, "id": "DEA28"}, {"geometry": {"type": "Point", "coordinates": [6.1717, 51.0525]}, "type": "Feature", "properties": {"CNTR_CODE": "DE", "NUTS_NAME": "Heinsberg", "LEVL_CODE": 3, "FID": "DEA29", "NUTS_ID": "DEA29"}, "id": "DEA29"}, {"geometry": {"type": "Point", "coordinates": [7.5224, 51.0215]}, "type": "Feature", "properties": {"CNTR_CODE": "DE", "NUTS_NAME": "Oberbergischer Kreis", "LEVL_CODE": 3, "FID": "DEA2A", "NUTS_ID": "DEA2A"}, "id": "DEA2A"}, {"geometry": {"type": "Point", "coordinates": [7.1917, 51.022]}, "type": "Feature", "properties": {"CNTR_CODE": "DE", "NUTS_NAME": "Rheinisch-Bergischer Kreis", "LEVL_CODE": 3, "FID": "DEA2B", "NUTS_ID": "DEA2B"}, "id": "DEA2B"}, {"geometry": {"type": "Point", "coordinates": [7.2626, 50.7726]}, "type": "Feature", "properties": {"CNTR_CODE": "DE", "NUTS_NAME": "Rhein-Sieg-Kreis", "LEVL_CODE": 3, "FID": "DEA2C", "NUTS_ID": "DEA2C"}, "id": "DEA2C"}, {"geometry": {"type": "Point", "coordinates": [6.2155, 50.7581]}, "type": "Feature", "properties": {"CNTR_CODE": "DE", "NUTS_NAME": "St\u00e4dteregion Aachen", "LEVL_CODE": 3, "FID": "DEA2D", "NUTS_ID": "DEA2D"}, "id": "DEA2D"}, {"geometry": {"type": "Point", "coordinates": [6.912, 51.5631]}, "type": "Feature", "properties": {"CNTR_CODE": "DE", "NUTS_NAME": "Bottrop, Kreisfreie Stadt", "LEVL_CODE": 3, "FID": "DEA31", "NUTS_ID": "DEA31"}, "id": "DEA31"}, {"geometry": {"type": "Point", "coordinates": [7.0849, 51.5335]}, "type": "Feature", "properties": {"CNTR_CODE": "DE", "NUTS_NAME": "Gelsenkirchen, Kreisfreie Stadt", "LEVL_CODE": 3, "FID": "DEA32", "NUTS_ID": "DEA32"}, "id": "DEA32"}, {"geometry": {"type": "Point", "coordinates": [7.6332, 51.9518]}, "type": "Feature", "properties": {"CNTR_CODE": "DE", "NUTS_NAME": "M\u00fcnster, Kreisfreie Stadt", "LEVL_CODE": 3, "FID": "DEA33", "NUTS_ID": "DEA33"}, "id": "DEA33"}, {"geometry": {"type": "Point", "coordinates": [6.9093, 51.9662]}, "type": "Feature", "properties": {"CNTR_CODE": "DE", "NUTS_NAME": "Borken", "LEVL_CODE": 3, "FID": "DEA34", "NUTS_ID": "DEA34"}, "id": "DEA34"}, {"geometry": {"type": "Point", "coordinates": [7.4136, 51.8518]}, "type": "Feature", "properties": {"CNTR_CODE": "DE", "NUTS_NAME": "Coesfeld", "LEVL_CODE": 3, "FID": "DEA35", "NUTS_ID": "DEA35"}, "id": "DEA35"}, {"geometry": {"type": "Point", "coordinates": [7.1595, 51.671]}, "type": "Feature", "properties": {"CNTR_CODE": "DE", "NUTS_NAME": "Recklinghausen", "LEVL_CODE": 3, "FID": "DEA36", "NUTS_ID": "DEA36"}, "id": "DEA36"}, {"geometry": {"type": "Point", "coordinates": [7.5476, 52.2058]}, "type": "Feature", "properties": {"CNTR_CODE": "DE", "NUTS_NAME": "Steinfurt", "LEVL_CODE": 3, "FID": "DEA37", "NUTS_ID": "DEA37"}, "id": "DEA37"}, {"geometry": {"type": "Point", "coordinates": [7.9518, 51.8703]}, "type": "Feature", "properties": {"CNTR_CODE": "DE", "NUTS_NAME": "Warendorf", "LEVL_CODE": 3, "FID": "DEA38", "NUTS_ID": "DEA38"}, "id": "DEA38"}, {"geometry": {"type": "Point", "coordinates": [8.5488, 52.0166]}, "type": "Feature", "properties": {"CNTR_CODE": "DE", "NUTS_NAME": "Bielefeld, Kreisfreie Stadt", "LEVL_CODE": 3, "FID": "DEA41", "NUTS_ID": "DEA41"}, "id": "DEA41"}, {"geometry": {"type": "Point", "coordinates": [8.4224, 51.8573]}, "type": "Feature", "properties": {"CNTR_CODE": "DE", "NUTS_NAME": "G\u00fctersloh", "LEVL_CODE": 3, "FID": "DEA42", "NUTS_ID": "DEA42"}, "id": "DEA42"}, {"geometry": {"type": "Point", "coordinates": [8.6257, 52.166]}, "type": "Feature", "properties": {"CNTR_CODE": "DE", "NUTS_NAME": "Herford", "LEVL_CODE": 3, "FID": "DEA43", "NUTS_ID": "DEA43"}, "id": "DEA43"}, {"geometry": {"type": "Point", "coordinates": [9.1726, 51.6626]}, "type": "Feature", "properties": {"CNTR_CODE": "DE", "NUTS_NAME": "H\u00f6xter", "LEVL_CODE": 3, "FID": "DEA44", "NUTS_ID": "DEA44"}, "id": "DEA44"}, {"geometry": {"type": "Point", "coordinates": [8.9483, 51.9838]}, "type": "Feature", "properties": {"CNTR_CODE": "DE", "NUTS_NAME": "Lippe", "LEVL_CODE": 3, "FID": "DEA45", "NUTS_ID": "DEA45"}, "id": "DEA45"}, {"geometry": {"type": "Point", "coordinates": [8.7112, 52.3226]}, "type": "Feature", "properties": {"CNTR_CODE": "DE", "NUTS_NAME": "Minden-L\u00fcbbecke", "LEVL_CODE": 3, "FID": "DEA46", "NUTS_ID": "DEA46"}, "id": "DEA46"}, {"geometry": {"type": "Point", "coordinates": [8.7144, 51.6618]}, "type": "Feature", "properties": {"CNTR_CODE": "DE", "NUTS_NAME": "Paderborn", "LEVL_CODE": 3, "FID": "DEA47", "NUTS_ID": "DEA47"}, "id": "DEA47"}, {"geometry": {"type": "Point", "coordinates": [7.2166, 51.4814]}, "type": "Feature", "properties": {"CNTR_CODE": "DE", "NUTS_NAME": "Bochum, Kreisfreie Stadt", "LEVL_CODE": 3, "FID": "DEA51", "NUTS_ID": "DEA51"}, "id": "DEA51"}, {"geometry": {"type": "Point", "coordinates": [7.452, 51.5063]}, "type": "Feature", "properties": {"CNTR_CODE": "DE", "NUTS_NAME": "Dortmund, Kreisfreie Stadt", "LEVL_CODE": 3, "FID": "DEA52", "NUTS_ID": "DEA52"}, "id": "DEA52"}, {"geometry": {"type": "Point", "coordinates": [7.5224, 51.3587]}, "type": "Feature", "properties": {"CNTR_CODE": "DE", "NUTS_NAME": "Hagen, Kreisfreie Stadt", "LEVL_CODE": 3, "FID": "DEA53", "NUTS_ID": "DEA53"}, "id": "DEA53"}, {"geometry": {"type": "Point", "coordinates": [7.8199, 51.6737]}, "type": "Feature", "properties": {"CNTR_CODE": "DE", "NUTS_NAME": "Hamm, Kreisfreie Stadt", "LEVL_CODE": 3, "FID": "DEA54", "NUTS_ID": "DEA54"}, "id": "DEA54"}, {"geometry": {"type": "Point", "coordinates": [7.1781, 51.5302]}, "type": "Feature", "properties": {"CNTR_CODE": "DE", "NUTS_NAME": "Herne, Kreisfreie Stadt", "LEVL_CODE": 3, "FID": "DEA55", "NUTS_ID": "DEA55"}, "id": "DEA55"}, {"geometry": {"type": "Point", "coordinates": [7.3205, 51.3474]}, "type": "Feature", "properties": {"CNTR_CODE": "DE", "NUTS_NAME": "Ennepe-Ruhr-Kreis", "LEVL_CODE": 3, "FID": "DEA56", "NUTS_ID": "DEA56"}, "id": "DEA56"}, {"geometry": {"type": "Point", "coordinates": [8.4172, 51.271]}, "type": "Feature", "properties": {"CNTR_CODE": "DE", "NUTS_NAME": "Hochsauerlandkreis", "LEVL_CODE": 3, "FID": "DEA57", "NUTS_ID": "DEA57"}, "id": "DEA57"}, {"geometry": {"type": "Point", "coordinates": [7.7215, 51.2714]}, "type": "Feature", "properties": {"CNTR_CODE": "DE", "NUTS_NAME": "M\u00e4rkischer Kreis", "LEVL_CODE": 3, "FID": "DEA58", "NUTS_ID": "DEA58"}, "id": "DEA58"}, {"geometry": {"type": "Point", "coordinates": [7.9532, 51.0798]}, "type": "Feature", "properties": {"CNTR_CODE": "DE", "NUTS_NAME": "Olpe", "LEVL_CODE": 3, "FID": "DEA59", "NUTS_ID": "DEA59"}, "id": "DEA59"}, {"geometry": {"type": "Point", "coordinates": [8.1938, 50.9308]}, "type": "Feature", "properties": {"CNTR_CODE": "DE", "NUTS_NAME": "Siegen-Wittgenstein", "LEVL_CODE": 3, "FID": "DEA5A", "NUTS_ID": "DEA5A"}, "id": "DEA5A"}, {"geometry": {"type": "Point", "coordinates": [8.1857, 51.5701]}, "type": "Feature", "properties": {"CNTR_CODE": "DE", "NUTS_NAME": "Soest", "LEVL_CODE": 3, "FID": "DEA5B", "NUTS_ID": "DEA5B"}, "id": "DEA5B"}, {"geometry": {"type": "Point", "coordinates": [7.7306, 51.5453]}, "type": "Feature", "properties": {"CNTR_CODE": "DE", "NUTS_NAME": "Unna", "LEVL_CODE": 3, "FID": "DEA5C", "NUTS_ID": "DEA5C"}, "id": "DEA5C"}, {"geometry": {"type": "Point", "coordinates": [7.6181, 50.3552]}, "type": "Feature", "properties": {"CNTR_CODE": "DE", "NUTS_NAME": "Koblenz, Kreisfreie Stadt", "LEVL_CODE": 3, "FID": "DEB11", "NUTS_ID": "DEB11"}, "id": "DEB11"}, {"geometry": {"type": "Point", "coordinates": [7.0691, 50.4799]}, "type": "Feature", "properties": {"CNTR_CODE": "DE", "NUTS_NAME": "Ahrweiler", "LEVL_CODE": 3, "FID": "DEB12", "NUTS_ID": "DEB12"}, "id": "DEB12"}, {"geometry": {"type": "Point", "coordinates": [7.7402, 50.7908]}, "type": "Feature", "properties": {"CNTR_CODE": "DE", "NUTS_NAME": "Altenkirchen (Westerwald)", "LEVL_CODE": 3, "FID": "DEB13", "NUTS_ID": "DEB13"}, "id": "DEB13"}, {"geometry": {"type": "Point", "coordinates": [7.6885, 49.8254]}, "type": "Feature", "properties": {"CNTR_CODE": "DE", "NUTS_NAME": "Bad Kreuznach", "LEVL_CODE": 3, "FID": "DEB14", "NUTS_ID": "DEB14"}, "id": "DEB14"}, {"geometry": {"type": "Point", "coordinates": [7.272, 49.7113]}, "type": "Feature", "properties": {"CNTR_CODE": "DE", "NUTS_NAME": "Birkenfeld", "LEVL_CODE": 3, "FID": "DEB15", "NUTS_ID": "DEB15"}, "id": "DEB15"}, {"geometry": {"type": "Point", "coordinates": [7.3331, 50.3304]}, "type": "Feature", "properties": {"CNTR_CODE": "DE", "NUTS_NAME": "Mayen-Koblenz", "LEVL_CODE": 3, "FID": "DEB17", "NUTS_ID": "DEB17"}, "id": "DEB17"}, {"geometry": {"type": "Point", "coordinates": [7.4566, 50.5416]}, "type": "Feature", "properties": {"CNTR_CODE": "DE", "NUTS_NAME": "Neuwied", "LEVL_CODE": 3, "FID": "DEB18", "NUTS_ID": "DEB18"}, "id": "DEB18"}, {"geometry": {"type": "Point", "coordinates": [7.8408, 50.2607]}, "type": "Feature", "properties": {"CNTR_CODE": "DE", "NUTS_NAME": "Rhein-Lahn-Kreis", "LEVL_CODE": 3, "FID": "DEB1A", "NUTS_ID": "DEB1A"}, "id": "DEB1A"}, {"geometry": {"type": "Point", "coordinates": [7.8652, 50.5496]}, "type": "Feature", "properties": {"CNTR_CODE": "DE", "NUTS_NAME": "Westerwaldkreis", "LEVL_CODE": 3, "FID": "DEB1B", "NUTS_ID": "DEB1B"}, "id": "DEB1B"}, {"geometry": {"type": "Point", "coordinates": [7.1649, 50.1316]}, "type": "Feature", "properties": {"CNTR_CODE": "DE", "NUTS_NAME": "Cochem-Zell", "LEVL_CODE": 3, "FID": "DEB1C", "NUTS_ID": "DEB1C"}, "id": "DEB1C"}, {"geometry": {"type": "Point", "coordinates": [7.501, 50.0415]}, "type": "Feature", "properties": {"CNTR_CODE": "DE", "NUTS_NAME": "Rhein-Hunsr\u00fcck-Kreis", "LEVL_CODE": 3, "FID": "DEB1D", "NUTS_ID": "DEB1D"}, "id": "DEB1D"}, {"geometry": {"type": "Point", "coordinates": [6.6698, 49.7704]}, "type": "Feature", "properties": {"CNTR_CODE": "DE", "NUTS_NAME": "Trier, Kreisfreie Stadt", "LEVL_CODE": 3, "FID": "DEB21", "NUTS_ID": "DEB21"}, "id": "DEB21"}, {"geometry": {"type": "Point", "coordinates": [6.9647, 49.9272]}, "type": "Feature", "properties": {"CNTR_CODE": "DE", "NUTS_NAME": "Bernkastel-Wittlich", "LEVL_CODE": 3, "FID": "DEB22", "NUTS_ID": "DEB22"}, "id": "DEB22"}, {"geometry": {"type": "Point", "coordinates": [6.4459, 50.0681]}, "type": "Feature", "properties": {"CNTR_CODE": "DE", "NUTS_NAME": "Eifelkreis Bitburg-Pr\u00fcm", "LEVL_CODE": 3, "FID": "DEB23", "NUTS_ID": "DEB23"}, "id": "DEB23"}, {"geometry": {"type": "Point", "coordinates": [6.7687, 50.234]}, "type": "Feature", "properties": {"CNTR_CODE": "DE", "NUTS_NAME": "Vulkaneifel", "LEVL_CODE": 3, "FID": "DEB24", "NUTS_ID": "DEB24"}, "id": "DEB24"}, {"geometry": {"type": "Point", "coordinates": [6.7122, 49.6518]}, "type": "Feature", "properties": {"CNTR_CODE": "DE", "NUTS_NAME": "Trier-Saarburg", "LEVL_CODE": 3, "FID": "DEB25", "NUTS_ID": "DEB25"}, "id": "DEB25"}, {"geometry": {"type": "Point", "coordinates": [8.3846, 49.5515]}, "type": "Feature", "properties": {"CNTR_CODE": "DE", "NUTS_NAME": "Frankenthal (Pfalz), Kreisfreie Stadt", "LEVL_CODE": 3, "FID": "DEB31", "NUTS_ID": "DEB31"}, "id": "DEB31"}, {"geometry": {"type": "Point", "coordinates": [7.7231, 49.4377]}, "type": "Feature", "properties": {"CNTR_CODE": "DE", "NUTS_NAME": "Kaiserslautern, Kreisfreie Stadt", "LEVL_CODE": 3, "FID": "DEB32", "NUTS_ID": "DEB32"}, "id": "DEB32"}, {"geometry": {"type": "Point", "coordinates": [8.1138, 49.1973]}, "type": "Feature", "properties": {"CNTR_CODE": "DE", "NUTS_NAME": "Landau in der Pfalz, Kreisfreie Stadt", "LEVL_CODE": 3, "FID": "DEB33", "NUTS_ID": "DEB33"}, "id": "DEB33"}, {"geometry": {"type": "Point", "coordinates": [8.4067, 49.4836]}, "type": "Feature", "properties": {"CNTR_CODE": "DE", "NUTS_NAME": "Ludwigshafen am Rhein, Kreisfreie Stadt", "LEVL_CODE": 3, "FID": "DEB34", "NUTS_ID": "DEB34"}, "id": "DEB34"}, {"geometry": {"type": "Point", "coordinates": [8.2488, 49.982]}, "type": "Feature", "properties": {"CNTR_CODE": "DE", "NUTS_NAME": "Mainz, Kreisfreie Stadt", "LEVL_CODE": 3, "FID": "DEB35", "NUTS_ID": "DEB35"}, "id": "DEB35"}, {"geometry": {"type": "Point", "coordinates": [8.1585, 49.3541]}, "type": "Feature", "properties": {"CNTR_CODE": "DE", "NUTS_NAME": "Neustadt an der Weinstra\u00dfe, Kreisfreie Stadt", "LEVL_CODE": 3, "FID": "DEB36", "NUTS_ID": "DEB36"}, "id": "DEB36"}, {"geometry": {"type": "Point", "coordinates": [7.5847, 49.2018]}, "type": "Feature", "properties": {"CNTR_CODE": "DE", "NUTS_NAME": "Pirmasens, Kreisfreie Stadt", "LEVL_CODE": 3, "FID": "DEB37", "NUTS_ID": "DEB37"}, "id": "DEB37"}, {"geometry": {"type": "Point", "coordinates": [8.4443, 49.3209]}, "type": "Feature", "properties": {"CNTR_CODE": "DE", "NUTS_NAME": "Speyer, Kreisfreie Stadt", "LEVL_CODE": 3, "FID": "DEB38", "NUTS_ID": "DEB38"}, "id": "DEB38"}, {"geometry": {"type": "Point", "coordinates": [8.3246, 49.6312]}, "type": "Feature", "properties": {"CNTR_CODE": "DE", "NUTS_NAME": "Worms, Kreisfreie Stadt", "LEVL_CODE": 3, "FID": "DEB39", "NUTS_ID": "DEB39"}, "id": "DEB39"}, {"geometry": {"type": "Point", "coordinates": [7.3606, 49.247]}, "type": "Feature", "properties": {"CNTR_CODE": "DE", "NUTS_NAME": "Zweibr\u00fccken, Kreisfreie Stadt", "LEVL_CODE": 3, "FID": "DEB3A", "NUTS_ID": "DEB3A"}, "id": "DEB3A"}, {"geometry": {"type": "Point", "coordinates": [8.1601, 49.742]}, "type": "Feature", "properties": {"CNTR_CODE": "DE", "NUTS_NAME": "Alzey-Worms", "LEVL_CODE": 3, "FID": "DEB3B", "NUTS_ID": "DEB3B"}, "id": "DEB3B"}, {"geometry": {"type": "Point", "coordinates": [8.1144, 49.4587]}, "type": "Feature", "properties": {"CNTR_CODE": "DE", "NUTS_NAME": "Bad D\u00fcrkheim", "LEVL_CODE": 3, "FID": "DEB3C", "NUTS_ID": "DEB3C"}, "id": "DEB3C"}, {"geometry": {"type": "Point", "coordinates": [7.9153, 49.6231]}, "type": "Feature", "properties": {"CNTR_CODE": "DE", "NUTS_NAME": "Donnersbergkreis", "LEVL_CODE": 3, "FID": "DEB3D", "NUTS_ID": "DEB3D"}, "id": "DEB3D"}, {"geometry": {"type": "Point", "coordinates": [8.2407, 49.0475]}, "type": "Feature", "properties": {"CNTR_CODE": "DE", "NUTS_NAME": "Germersheim", "LEVL_CODE": 3, "FID": "DEB3E", "NUTS_ID": "DEB3E"}, "id": "DEB3E"}, {"geometry": {"type": "Point", "coordinates": [7.538, 49.4143]}, "type": "Feature", "properties": {"CNTR_CODE": "DE", "NUTS_NAME": "Kaiserslautern, Landkreis", "LEVL_CODE": 3, "FID": "DEB3F", "NUTS_ID": "DEB3F"}, "id": "DEB3F"}, {"geometry": {"type": "Point", "coordinates": [7.4677, 49.5499]}, "type": "Feature", "properties": {"CNTR_CODE": "DE", "NUTS_NAME": "Kusel", "LEVL_CODE": 3, "FID": "DEB3G", "NUTS_ID": "DEB3G"}, "id": "DEB3G"}, {"geometry": {"type": "Point", "coordinates": [7.9846, 49.1]}, "type": "Feature", "properties": {"CNTR_CODE": "DE", "NUTS_NAME": "S\u00fcdliche Weinstra\u00dfe", "LEVL_CODE": 3, "FID": "DEB3H", "NUTS_ID": "DEB3H"}, "id": "DEB3H"}, {"geometry": {"type": "Point", "coordinates": [8.3705, 49.4064]}, "type": "Feature", "properties": {"CNTR_CODE": "DE", "NUTS_NAME": "Rhein-Pfalz-Kreis", "LEVL_CODE": 3, "FID": "DEB3I", "NUTS_ID": "DEB3I"}, "id": "DEB3I"}, {"geometry": {"type": "Point", "coordinates": [8.0673, 49.946]}, "type": "Feature", "properties": {"CNTR_CODE": "DE", "NUTS_NAME": "Mainz-Bingen", "LEVL_CODE": 3, "FID": "DEB3J", "NUTS_ID": "DEB3J"}, "id": "DEB3J"}, {"geometry": {"type": "Point", "coordinates": [7.7631, 49.1846]}, "type": "Feature", "properties": {"CNTR_CODE": "DE", "NUTS_NAME": "S\u00fcdwestpfalz", "LEVL_CODE": 3, "FID": "DEB3K", "NUTS_ID": "DEB3K"}, "id": "DEB3K"}, {"geometry": {"type": "Point", "coordinates": [6.9696, 49.2655]}, "type": "Feature", "properties": {"CNTR_CODE": "DE", "NUTS_NAME": "Regionalverband Saarbr\u00fccken", "LEVL_CODE": 3, "FID": "DEC01", "NUTS_ID": "DEC01"}, "id": "DEC01"}, {"geometry": {"type": "Point", "coordinates": [6.6386, 49.4877]}, "type": "Feature", "properties": {"CNTR_CODE": "DE", "NUTS_NAME": "Merzig-Wadern", "LEVL_CODE": 3, "FID": "DEC02", "NUTS_ID": "DEC02"}, "id": "DEC02"}, {"geometry": {"type": "Point", "coordinates": [7.1116, 49.3853]}, "type": "Feature", "properties": {"CNTR_CODE": "DE", "NUTS_NAME": "Neunkirchen", "LEVL_CODE": 3, "FID": "DEC03", "NUTS_ID": "DEC03"}, "id": "DEC03"}, {"geometry": {"type": "Point", "coordinates": [6.7732, 49.3289]}, "type": "Feature", "properties": {"CNTR_CODE": "DE", "NUTS_NAME": "Saarlouis", "LEVL_CODE": 3, "FID": "DEC04", "NUTS_ID": "DEC04"}, "id": "DEC04"}, {"geometry": {"type": "Point", "coordinates": [7.2484, 49.2521]}, "type": "Feature", "properties": {"CNTR_CODE": "DE", "NUTS_NAME": "Saarpfalz-Kreis", "LEVL_CODE": 3, "FID": "DEC05", "NUTS_ID": "DEC05"}, "id": "DEC05"}, {"geometry": {"type": "Point", "coordinates": [7.0935, 49.5237]}, "type": "Feature", "properties": {"CNTR_CODE": "DE", "NUTS_NAME": "St. Wendel", "LEVL_CODE": 3, "FID": "DEC06", "NUTS_ID": "DEC06"}, "id": "DEC06"}, {"geometry": {"type": "Point", "coordinates": [13.7782, 51.0697]}, "type": "Feature", "properties": {"CNTR_CODE": "DE", "NUTS_NAME": "Dresden, Kreisfreie Stadt", "LEVL_CODE": 3, "FID": "DED21", "NUTS_ID": "DED21"}, "id": "DED21"}, {"geometry": {"type": "Point", "coordinates": [14.213, 51.2706]}, "type": "Feature", "properties": {"CNTR_CODE": "DE", "NUTS_NAME": "Bautzen", "LEVL_CODE": 3, "FID": "DED2C", "NUTS_ID": "DED2C"}, "id": "DED2C"}, {"geometry": {"type": "Point", "coordinates": [14.8426, 51.2074]}, "type": "Feature", "properties": {"CNTR_CODE": "DE", "NUTS_NAME": "G\u00f6rlitz", "LEVL_CODE": 3, "FID": "DED2D", "NUTS_ID": "DED2D"}, "id": "DED2D"}, {"geometry": {"type": "Point", "coordinates": [13.4964, 51.244]}, "type": "Feature", "properties": {"CNTR_CODE": "DE", "NUTS_NAME": "Mei\u00dfen", "LEVL_CODE": 3, "FID": "DED2E", "NUTS_ID": "DED2E"}, "id": "DED2E"}, {"geometry": {"type": "Point", "coordinates": [13.8699, 50.8845]}, "type": "Feature", "properties": {"CNTR_CODE": "DE", "NUTS_NAME": "S\u00e4chsische Schweiz-Osterzgebirge", "LEVL_CODE": 3, "FID": "DED2F", "NUTS_ID": "DED2F"}, "id": "DED2F"}, {"geometry": {"type": "Point", "coordinates": [12.899, 50.8105]}, "type": "Feature", "properties": {"CNTR_CODE": "DE", "NUTS_NAME": "Chemnitz, Kreisfreie Stadt", "LEVL_CODE": 3, "FID": "DED41", "NUTS_ID": "DED41"}, "id": "DED41"}, {"geometry": {"type": "Point", "coordinates": [12.9429, 50.6064]}, "type": "Feature", "properties": {"CNTR_CODE": "DE", "NUTS_NAME": "Erzgebirgskreis", "LEVL_CODE": 3, "FID": "DED42", "NUTS_ID": "DED42"}, "id": "DED42"}, {"geometry": {"type": "Point", "coordinates": [13.1359, 50.957]}, "type": "Feature", "properties": {"CNTR_CODE": "DE", "NUTS_NAME": "Mittelsachsen", "LEVL_CODE": 3, "FID": "DED43", "NUTS_ID": "DED43"}, "id": "DED43"}, {"geometry": {"type": "Point", "coordinates": [12.2257, 50.4807]}, "type": "Feature", "properties": {"CNTR_CODE": "DE", "NUTS_NAME": "Vogtlandkreis", "LEVL_CODE": 3, "FID": "DED44", "NUTS_ID": "DED44"}, "id": "DED44"}, {"geometry": {"type": "Point", "coordinates": [12.528, 50.7575]}, "type": "Feature", "properties": {"CNTR_CODE": "DE", "NUTS_NAME": "Zwickau", "LEVL_CODE": 3, "FID": "DED45", "NUTS_ID": "DED45"}, "id": "DED45"}, {"geometry": {"type": "Point", "coordinates": [12.3884, 51.3207]}, "type": "Feature", "properties": {"CNTR_CODE": "DE", "NUTS_NAME": "Leipzig, Kreisfreie Stadt", "LEVL_CODE": 3, "FID": "DED51", "NUTS_ID": "DED51"}, "id": "DED51"}, {"geometry": {"type": "Point", "coordinates": [12.5787, 51.2071]}, "type": "Feature", "properties": {"CNTR_CODE": "DE", "NUTS_NAME": "Leipzig", "LEVL_CODE": 3, "FID": "DED52", "NUTS_ID": "DED52"}, "id": "DED52"}, {"geometry": {"type": "Point", "coordinates": [12.7018, 51.5399]}, "type": "Feature", "properties": {"CNTR_CODE": "DE", "NUTS_NAME": "Nordsachsen", "LEVL_CODE": 3, "FID": "DED53", "NUTS_ID": "DED53"}, "id": "DED53"}, {"geometry": {"type": "Point", "coordinates": [12.2333, 51.8538]}, "type": "Feature", "properties": {"CNTR_CODE": "DE", "NUTS_NAME": "Dessau-Ro\u00dflau, Kreisfreie Stadt", "LEVL_CODE": 3, "FID": "DEE01", "NUTS_ID": "DEE01"}, "id": "DEE01"}, {"geometry": {"type": "Point", "coordinates": [11.9712, 51.4788]}, "type": "Feature", "properties": {"CNTR_CODE": "DE", "NUTS_NAME": "Halle (Saale), Kreisfreie Stadt", "LEVL_CODE": 3, "FID": "DEE02", "NUTS_ID": "DEE02"}, "id": "DEE02"}, {"geometry": {"type": "Point", "coordinates": [11.654, 52.1098]}, "type": "Feature", "properties": {"CNTR_CODE": "DE", "NUTS_NAME": "Magdeburg, Kreisfreie Stadt", "LEVL_CODE": 3, "FID": "DEE03", "NUTS_ID": "DEE03"}, "id": "DEE03"}, {"geometry": {"type": "Point", "coordinates": [11.2091, 52.6917]}, "type": "Feature", "properties": {"CNTR_CODE": "DE", "NUTS_NAME": "Altmarkkreis Salzwedel", "LEVL_CODE": 3, "FID": "DEE04", "NUTS_ID": "DEE04"}, "id": "DEE04"}, {"geometry": {"type": "Point", "coordinates": [12.2227, 51.6539]}, "type": "Feature", "properties": {"CNTR_CODE": "DE", "NUTS_NAME": "Anhalt-Bitterfeld", "LEVL_CODE": 3, "FID": "DEE05", "NUTS_ID": "DEE05"}, "id": "DEE05"}, {"geometry": {"type": "Point", "coordinates": [12.0287, 52.2465]}, "type": "Feature", "properties": {"CNTR_CODE": "DE", "NUTS_NAME": "Jerichower Land", "LEVL_CODE": 3, "FID": "DEE06", "NUTS_ID": "DEE06"}, "id": "DEE06"}, {"geometry": {"type": "Point", "coordinates": [11.3383, 52.2188]}, "type": "Feature", "properties": {"CNTR_CODE": "DE", "NUTS_NAME": "B\u00f6rde", "LEVL_CODE": 3, "FID": "DEE07", "NUTS_ID": "DEE07"}, "id": "DEE07"}, {"geometry": {"type": "Point", "coordinates": [11.8873, 51.1428]}, "type": "Feature", "properties": {"CNTR_CODE": "DE", "NUTS_NAME": "Burgenlandkreis", "LEVL_CODE": 3, "FID": "DEE08", "NUTS_ID": "DEE08"}, "id": "DEE08"}, {"geometry": {"type": "Point", "coordinates": [10.9426, 51.8365]}, "type": "Feature", "properties": {"CNTR_CODE": "DE", "NUTS_NAME": "Harz", "LEVL_CODE": 3, "FID": "DEE09", "NUTS_ID": "DEE09"}, "id": "DEE09"}, {"geometry": {"type": "Point", "coordinates": [11.3363, 51.5388]}, "type": "Feature", "properties": {"CNTR_CODE": "DE", "NUTS_NAME": "Mansfeld-S\u00fcdharz", "LEVL_CODE": 3, "FID": "DEE0A", "NUTS_ID": "DEE0A"}, "id": "DEE0A"}, {"geometry": {"type": "Point", "coordinates": [11.8139, 51.4546]}, "type": "Feature", "properties": {"CNTR_CODE": "DE", "NUTS_NAME": "Saalekreis", "LEVL_CODE": 3, "FID": "DEE0B", "NUTS_ID": "DEE0B"}, "id": "DEE0B"}, {"geometry": {"type": "Point", "coordinates": [11.6514, 51.8466]}, "type": "Feature", "properties": {"CNTR_CODE": "DE", "NUTS_NAME": "Salzlandkreis", "LEVL_CODE": 3, "FID": "DEE0C", "NUTS_ID": "DEE0C"}, "id": "DEE0C"}, {"geometry": {"type": "Point", "coordinates": [11.8487, 52.6975]}, "type": "Feature", "properties": {"CNTR_CODE": "DE", "NUTS_NAME": "Stendal", "LEVL_CODE": 3, "FID": "DEE0D", "NUTS_ID": "DEE0D"}, "id": "DEE0D"}, {"geometry": {"type": "Point", "coordinates": [12.6887, 51.8237]}, "type": "Feature", "properties": {"CNTR_CODE": "DE", "NUTS_NAME": "Wittenberg", "LEVL_CODE": 3, "FID": "DEE0E", "NUTS_ID": "DEE0E"}, "id": "DEE0E"}, {"geometry": {"type": "Point", "coordinates": [9.4499, 54.79]}, "type": "Feature", "properties": {"CNTR_CODE": "DE", "NUTS_NAME": "Flensburg, Kreisfreie Stadt", "LEVL_CODE": 3, "FID": "DEF01", "NUTS_ID": "DEF01"}, "id": "DEF01"}, {"geometry": {"type": "Point", "coordinates": [10.1325, 54.3399]}, "type": "Feature", "properties": {"CNTR_CODE": "DE", "NUTS_NAME": "Kiel, Kreisfreie Stadt", "LEVL_CODE": 3, "FID": "DEF02", "NUTS_ID": "DEF02"}, "id": "DEF02"}, {"geometry": {"type": "Point", "coordinates": [10.7198, 53.8762]}, "type": "Feature", "properties": {"CNTR_CODE": "DE", "NUTS_NAME": "L\u00fcbeck, Kreisfreie Stadt", "LEVL_CODE": 3, "FID": "DEF03", "NUTS_ID": "DEF03"}, "id": "DEF03"}, {"geometry": {"type": "Point", "coordinates": [9.9876, 54.0759]}, "type": "Feature", "properties": {"CNTR_CODE": "DE", "NUTS_NAME": "Neum\u00fcnster, Kreisfreie Stadt", "LEVL_CODE": 3, "FID": "DEF04", "NUTS_ID": "DEF04"}, "id": "DEF04"}, {"geometry": {"type": "Point", "coordinates": [9.1134, 54.1311]}, "type": "Feature", "properties": {"CNTR_CODE": "DE", "NUTS_NAME": "Dithmarschen", "LEVL_CODE": 3, "FID": "DEF05", "NUTS_ID": "DEF05"}, "id": "DEF05"}, {"geometry": {"type": "Point", "coordinates": [10.6018, 53.5834]}, "type": "Feature", "properties": {"CNTR_CODE": "DE", "NUTS_NAME": "Herzogtum Lauenburg", "LEVL_CODE": 3, "FID": "DEF06", "NUTS_ID": "DEF06"}, "id": "DEF06"}, {"geometry": {"type": "Point", "coordinates": [8.9686, 54.626]}, "type": "Feature", "properties": {"CNTR_CODE": "DE", "NUTS_NAME": "Nordfriesland", "LEVL_CODE": 3, "FID": "DEF07", "NUTS_ID": "DEF07"}, "id": "DEF07"}, {"geometry": {"type": "Point", "coordinates": [10.7223, 54.1287]}, "type": "Feature", "properties": {"CNTR_CODE": "DE", "NUTS_NAME": "Ostholstein", "LEVL_CODE": 3, "FID": "DEF08", "NUTS_ID": "DEF08"}, "id": "DEF08"}, {"geometry": {"type": "Point", "coordinates": [9.7333, 53.7118]}, "type": "Feature", "properties": {"CNTR_CODE": "DE", "NUTS_NAME": "Pinneberg", "LEVL_CODE": 3, "FID": "DEF09", "NUTS_ID": "DEF09"}, "id": "DEF09"}, {"geometry": {"type": "Point", "coordinates": [10.3394, 54.2122]}, "type": "Feature", "properties": {"CNTR_CODE": "DE", "NUTS_NAME": "Pl\u00f6n", "LEVL_CODE": 3, "FID": "DEF0A", "NUTS_ID": "DEF0A"}, "id": "DEF0A"}, {"geometry": {"type": "Point", "coordinates": [9.7664, 54.2695]}, "type": "Feature", "properties": {"CNTR_CODE": "DE", "NUTS_NAME": "Rendsburg-Eckernf\u00f6rde", "LEVL_CODE": 3, "FID": "DEF0B", "NUTS_ID": "DEF0B"}, "id": "DEF0B"}, {"geometry": {"type": "Point", "coordinates": [9.4555, 54.6078]}, "type": "Feature", "properties": {"CNTR_CODE": "DE", "NUTS_NAME": "Schleswig-Flensburg", "LEVL_CODE": 3, "FID": "DEF0C", "NUTS_ID": "DEF0C"}, "id": "DEF0C"}, {"geometry": {"type": "Point", "coordinates": [10.128, 53.9185]}, "type": "Feature", "properties": {"CNTR_CODE": "DE", "NUTS_NAME": "Segeberg", "LEVL_CODE": 3, "FID": "DEF0D", "NUTS_ID": "DEF0D"}, "id": "DEF0D"}, {"geometry": {"type": "Point", "coordinates": [9.5005, 53.9173]}, "type": "Feature", "properties": {"CNTR_CODE": "DE", "NUTS_NAME": "Steinburg", "LEVL_CODE": 3, "FID": "DEF0E", "NUTS_ID": "DEF0E"}, "id": "DEF0E"}, {"geometry": {"type": "Point", "coordinates": [10.3401, 53.7297]}, "type": "Feature", "properties": {"CNTR_CODE": "DE", "NUTS_NAME": "Stormarn", "LEVL_CODE": 3, "FID": "DEF0F", "NUTS_ID": "DEF0F"}, "id": "DEF0F"}, {"geometry": {"type": "Point", "coordinates": [11.019, 50.9705]}, "type": "Feature", "properties": {"CNTR_CODE": "DE", "NUTS_NAME": "Erfurt, Kreisfreie Stadt", "LEVL_CODE": 3, "FID": "DEG01", "NUTS_ID": "DEG01"}, "id": "DEG01"}, {"geometry": {"type": "Point", "coordinates": [12.089, 50.9231]}, "type": "Feature", "properties": {"CNTR_CODE": "DE", "NUTS_NAME": "Gera, Kreisfreie Stadt", "LEVL_CODE": 3, "FID": "DEG02", "NUTS_ID": "DEG02"}, "id": "DEG02"}, {"geometry": {"type": "Point", "coordinates": [11.5646, 50.9349]}, "type": "Feature", "properties": {"CNTR_CODE": "DE", "NUTS_NAME": "Jena, Kreisfreie Stadt", "LEVL_CODE": 3, "FID": "DEG03", "NUTS_ID": "DEG03"}, "id": "DEG03"}, {"geometry": {"type": "Point", "coordinates": [10.7083, 50.6155]}, "type": "Feature", "properties": {"CNTR_CODE": "DE", "NUTS_NAME": "Suhl, Kreisfreie Stadt", "LEVL_CODE": 3, "FID": "DEG04", "NUTS_ID": "DEG04"}, "id": "DEG04"}, {"geometry": {"type": "Point", "coordinates": [11.3211, 50.9756]}, "type": "Feature", "properties": {"CNTR_CODE": "DE", "NUTS_NAME": "Weimar, Kreisfreie Stadt", "LEVL_CODE": 3, "FID": "DEG05", "NUTS_ID": "DEG05"}, "id": "DEG05"}, {"geometry": {"type": "Point", "coordinates": [10.264, 51.3828]}, "type": "Feature", "properties": {"CNTR_CODE": "DE", "NUTS_NAME": "Eichsfeld", "LEVL_CODE": 3, "FID": "DEG06", "NUTS_ID": "DEG06"}, "id": "DEG06"}, {"geometry": {"type": "Point", "coordinates": [10.7289, 51.5018]}, "type": "Feature", "properties": {"CNTR_CODE": "DE", "NUTS_NAME": "Nordhausen", "LEVL_CODE": 3, "FID": "DEG07", "NUTS_ID": "DEG07"}, "id": "DEG07"}, {"geometry": {"type": "Point", "coordinates": [10.5565, 51.1796]}, "type": "Feature", "properties": {"CNTR_CODE": "DE", "NUTS_NAME": "Unstrut-Hainich-Kreis", "LEVL_CODE": 3, "FID": "DEG09", "NUTS_ID": "DEG09"}, "id": "DEG09"}, {"geometry": {"type": "Point", "coordinates": [10.9741, 51.3268]}, "type": "Feature", "properties": {"CNTR_CODE": "DE", "NUTS_NAME": "Kyffh\u00e4userkreis", "LEVL_CODE": 3, "FID": "DEG0A", "NUTS_ID": "DEG0A"}, "id": "DEG0A"}, {"geometry": {"type": "Point", "coordinates": [10.4022, 50.6368]}, "type": "Feature", "properties": {"CNTR_CODE": "DE", "NUTS_NAME": "Schmalkalden-Meiningen", "LEVL_CODE": 3, "FID": "DEG0B", "NUTS_ID": "DEG0B"}, "id": "DEG0B"}, {"geometry": {"type": "Point", "coordinates": [10.6992, 50.9104]}, "type": "Feature", "properties": {"CNTR_CODE": "DE", "NUTS_NAME": "Gotha", "LEVL_CODE": 3, "FID": "DEG0C", "NUTS_ID": "DEG0C"}, "id": "DEG0C"}, {"geometry": {"type": "Point", "coordinates": [11.1531, 51.1429]}, "type": "Feature", "properties": {"CNTR_CODE": "DE", "NUTS_NAME": "S\u00f6mmerda", "LEVL_CODE": 3, "FID": "DEG0D", "NUTS_ID": "DEG0D"}, "id": "DEG0D"}, {"geometry": {"type": "Point", "coordinates": [10.7305, 50.4355]}, "type": "Feature", "properties": {"CNTR_CODE": "DE", "NUTS_NAME": "Hildburghausen", "LEVL_CODE": 3, "FID": "DEG0E", "NUTS_ID": "DEG0E"}, "id": "DEG0E"}, {"geometry": {"type": "Point", "coordinates": [10.9671, 50.7399]}, "type": "Feature", "properties": {"CNTR_CODE": "DE", "NUTS_NAME": "Ilm-Kreis", "LEVL_CODE": 3, "FID": "DEG0F", "NUTS_ID": "DEG0F"}, "id": "DEG0F"}, {"geometry": {"type": "Point", "coordinates": [11.5503, 51.0456]}, "type": "Feature", "properties": {"CNTR_CODE": "DE", "NUTS_NAME": "Weimarer Land", "LEVL_CODE": 3, "FID": "DEG0G", "NUTS_ID": "DEG0G"}, "id": "DEG0G"}, {"geometry": {"type": "Point", "coordinates": [11.1008, 50.4382]}, "type": "Feature", "properties": {"CNTR_CODE": "DE", "NUTS_NAME": "Sonneberg", "LEVL_CODE": 3, "FID": "DEG0H", "NUTS_ID": "DEG0H"}, "id": "DEG0H"}, {"geometry": {"type": "Point", "coordinates": [11.3187, 50.6374]}, "type": "Feature", "properties": {"CNTR_CODE": "DE", "NUTS_NAME": "Saalfeld-Rudolstadt", "LEVL_CODE": 3, "FID": "DEG0I", "NUTS_ID": "DEG0I"}, "id": "DEG0I"}, {"geometry": {"type": "Point", "coordinates": [11.7272, 50.8999]}, "type": "Feature", "properties": {"CNTR_CODE": "DE", "NUTS_NAME": "Saale-Holzland-Kreis", "LEVL_CODE": 3, "FID": "DEG0J", "NUTS_ID": "DEG0J"}, "id": "DEG0J"}, {"geometry": {"type": "Point", "coordinates": [11.7275, 50.5792]}, "type": "Feature", "properties": {"CNTR_CODE": "DE", "NUTS_NAME": "Saale-Orla-Kreis", "LEVL_CODE": 3, "FID": "DEG0K", "NUTS_ID": "DEG0K"}, "id": "DEG0K"}, {"geometry": {"type": "Point", "coordinates": [12.0927, 50.7025]}, "type": "Feature", "properties": {"CNTR_CODE": "DE", "NUTS_NAME": "Greiz", "LEVL_CODE": 3, "FID": "DEG0L", "NUTS_ID": "DEG0L"}, "id": "DEG0L"}, {"geometry": {"type": "Point", "coordinates": [12.3995, 50.9501]}, "type": "Feature", "properties": {"CNTR_CODE": "DE", "NUTS_NAME": "Altenburger Land", "LEVL_CODE": 3, "FID": "DEG0M", "NUTS_ID": "DEG0M"}, "id": "DEG0M"}, {"geometry": {"type": "Point", "coordinates": [10.3211, 50.9883]}, "type": "Feature", "properties": {"CNTR_CODE": "DE", "NUTS_NAME": "Eisenach, Kreisfreie Stadt", "LEVL_CODE": 3, "FID": "DEG0N", "NUTS_ID": "DEG0N"}, "id": "DEG0N"}, {"geometry": {"type": "Point", "coordinates": [10.2176, 50.8904]}, "type": "Feature", "properties": {"CNTR_CODE": "DE", "NUTS_NAME": "Wartburgkreis", "LEVL_CODE": 3, "FID": "DEG0P", "NUTS_ID": "DEG0P"}, "id": "DEG0P"}, {"geometry": {"type": "Point", "coordinates": [12.5934, 55.624]}, "type": "Feature", "properties": {"CNTR_CODE": "DK", "NUTS_NAME": "Byen K\u00f8benhavn", "LEVL_CODE": 3, "FID": "DK011", "NUTS_ID": "DK011"}, "id": "DK011"}, {"geometry": {"type": "Point", "coordinates": [12.419, 55.6853]}, "type": "Feature", "properties": {"CNTR_CODE": "DK", "NUTS_NAME": "K\u00f8benhavns omegn", "LEVL_CODE": 3, "FID": "DK012", "NUTS_ID": "DK012"}, "id": "DK012"}, {"geometry": {"type": "Point", "coordinates": [12.293, 55.9121]}, "type": "Feature", "properties": {"CNTR_CODE": "DK", "NUTS_NAME": "Nordsj\u00e6lland", "LEVL_CODE": 3, "FID": "DK013", "NUTS_ID": "DK013"}, "id": "DK013"}, {"geometry": {"type": "Point", "coordinates": [14.9214, 55.1222]}, "type": "Feature", "properties": {"CNTR_CODE": "DK", "NUTS_NAME": "Bornholm", "LEVL_CODE": 3, "FID": "DK014", "NUTS_ID": "DK014"}, "id": "DK014"}, {"geometry": {"type": "Point", "coordinates": [12.0799, 55.5797]}, "type": "Feature", "properties": {"CNTR_CODE": "DK", "NUTS_NAME": "\u00d8stsj\u00e6lland", "LEVL_CODE": 3, "FID": "DK021", "NUTS_ID": "DK021"}, "id": "DK021"}, {"geometry": {"type": "Point", "coordinates": [11.6823, 55.4082]}, "type": "Feature", "properties": {"CNTR_CODE": "DK", "NUTS_NAME": "Vest- og Sydsj\u00e6lland", "LEVL_CODE": 3, "FID": "DK022", "NUTS_ID": "DK022"}, "id": "DK022"}, {"geometry": {"type": "Point", "coordinates": [10.5571, 55.2379]}, "type": "Feature", "properties": {"CNTR_CODE": "DK", "NUTS_NAME": "Fyn", "LEVL_CODE": 3, "FID": "DK031", "NUTS_ID": "DK031"}, "id": "DK031"}, {"geometry": {"type": "Point", "coordinates": [9.0569, 55.4038]}, "type": "Feature", "properties": {"CNTR_CODE": "DK", "NUTS_NAME": "Sydjylland", "LEVL_CODE": 3, "FID": "DK032", "NUTS_ID": "DK032"}, "id": "DK032"}, {"geometry": {"type": "Point", "coordinates": [8.8576, 56.2716]}, "type": "Feature", "properties": {"CNTR_CODE": "DK", "NUTS_NAME": "Vestjylland", "LEVL_CODE": 3, "FID": "DK041", "NUTS_ID": "DK041"}, "id": "DK041"}, {"geometry": {"type": "Point", "coordinates": [10.0178, 56.2136]}, "type": "Feature", "properties": {"CNTR_CODE": "DK", "NUTS_NAME": "\u00d8stjylland", "LEVL_CODE": 3, "FID": "DK042", "NUTS_ID": "DK042"}, "id": "DK042"}, {"geometry": {"type": "Point", "coordinates": [9.953, 57.2719]}, "type": "Feature", "properties": {"CNTR_CODE": "DK", "NUTS_NAME": "Nordjylland", "LEVL_CODE": 3, "FID": "DK050", "NUTS_ID": "DK050"}, "id": "DK050"}, {"geometry": {"type": "Point", "coordinates": [25.3053, 59.2842]}, "type": "Feature", "properties": {"CNTR_CODE": "EE", "NUTS_NAME": "P\u00f5hja-Eesti", "LEVL_CODE": 3, "FID": "EE001", "NUTS_ID": "EE001"}, "id": "EE001"}, {"geometry": {"type": "Point", "coordinates": [24.3076, 58.5393]}, "type": "Feature", "properties": {"CNTR_CODE": "EE", "NUTS_NAME": "L\u00e4\u00e4ne-Eesti", "LEVL_CODE": 3, "FID": "EE004", "NUTS_ID": "EE004"}, "id": "EE004"}, {"geometry": {"type": "Point", "coordinates": [25.6263, 59.0584]}, "type": "Feature", "properties": {"CNTR_CODE": "EE", "NUTS_NAME": "Kesk-Eesti", "LEVL_CODE": 3, "FID": "EE006", "NUTS_ID": "EE006"}, "id": "EE006"}, {"geometry": {"type": "Point", "coordinates": [27.336, 59.1732]}, "type": "Feature", "properties": {"CNTR_CODE": "EE", "NUTS_NAME": "Kirde-Eesti", "LEVL_CODE": 3, "FID": "EE007", "NUTS_ID": "EE007"}, "id": "EE007"}, {"geometry": {"type": "Point", "coordinates": [26.4951, 58.247]}, "type": "Feature", "properties": {"CNTR_CODE": "EE", "NUTS_NAME": "L\u00f5una-Eesti", "LEVL_CODE": 3, "FID": "EE008", "NUTS_ID": "EE008"}, "id": "EE008"}, {"geometry": {"type": "Point", "coordinates": [23.8012, 38.0451]}, "type": "Feature", "properties": {"CNTR_CODE": "EL", "NUTS_NAME": "\u0392\u03cc\u03c1\u03b5\u03b9\u03bf\u03c2 \u03a4\u03bf\u03bc\u03ad\u03b1\u03c2 \u0391\u03b8\u03b7\u03bd\u03ce\u03bd", "LEVL_CODE": 3, "FID": "EL301", "NUTS_ID": "EL301"}, "id": "EL301"}, {"geometry": {"type": "Point", "coordinates": [23.6742, 38.0192]}, "type": "Feature", "properties": {"CNTR_CODE": "EL", "NUTS_NAME": "\u0394\u03c5\u03c4\u03b9\u03ba\u03cc\u03c2 \u03a4\u03bf\u03bc\u03ad\u03b1\u03c2 \u0391\u03b8\u03b7\u03bd\u03ce\u03bd", "LEVL_CODE": 3, "FID": "EL302", "NUTS_ID": "EL302"}, "id": "EL302"}, {"geometry": {"type": "Point", "coordinates": [23.7566, 37.9791]}, "type": "Feature", "properties": {"CNTR_CODE": "EL", "NUTS_NAME": "\u039a\u03b5\u03bd\u03c4\u03c1\u03b9\u03ba\u03cc\u03c2 \u03a4\u03bf\u03bc\u03ad\u03b1\u03c2 \u0391\u03b8\u03b7\u03bd\u03ce\u03bd", "LEVL_CODE": 3, "FID": "EL303", "NUTS_ID": "EL303"}, "id": "EL303"}, {"geometry": {"type": "Point", "coordinates": [23.7395, 37.9016]}, "type": "Feature", "properties": {"CNTR_CODE": "EL", "NUTS_NAME": "\u039d\u03cc\u03c4\u03b9\u03bf\u03c2 \u03a4\u03bf\u03bc\u03ad\u03b1\u03c2 \u0391\u03b8\u03b7\u03bd\u03ce\u03bd", "LEVL_CODE": 3, "FID": "EL304", "NUTS_ID": "EL304"}, "id": "EL304"}, {"geometry": {"type": "Point", "coordinates": [23.9407, 37.8959]}, "type": "Feature", "properties": {"CNTR_CODE": "EL", "NUTS_NAME": "\u0391\u03bd\u03b1\u03c4\u03bf\u03bb\u03b9\u03ba\u03ae \u0391\u03c4\u03c4\u03b9\u03ba\u03ae", "LEVL_CODE": 3, "FID": "EL305", "NUTS_ID": "EL305"}, "id": "EL305"}, {"geometry": {"type": "Point", "coordinates": [23.3965, 38.0858]}, "type": "Feature", "properties": {"CNTR_CODE": "EL", "NUTS_NAME": "\u0394\u03c5\u03c4\u03b9\u03ba\u03ae \u0391\u03c4\u03c4\u03b9\u03ba\u03ae", "LEVL_CODE": 3, "FID": "EL306", "NUTS_ID": "EL306"}, "id": "EL306"}, {"geometry": {"type": "Point", "coordinates": [22.9824, 36.2443]}, "type": "Feature", "properties": {"CNTR_CODE": "EL", "NUTS_NAME": "\u03a0\u03b5\u03b9\u03c1\u03b1\u03b9\u03ac\u03c2, \u039d\u03ae\u03c3\u03bf\u03b9", "LEVL_CODE": 3, "FID": "EL307", "NUTS_ID": "EL307"}, "id": "EL307"}, {"geometry": {"type": "Point", "coordinates": [26.0189, 39.1974]}, "type": "Feature", "properties": {"CNTR_CODE": "EL", "NUTS_NAME": "\u039b\u03ad\u03c3\u03b2\u03bf\u03c2, \u039b\u03ae\u03bc\u03bd\u03bf\u03c2", "LEVL_CODE": 3, "FID": "EL411", "NUTS_ID": "EL411"}, "id": "EL411"}, {"geometry": {"type": "Point", "coordinates": [26.806, 37.7313]}, "type": "Feature", "properties": {"CNTR_CODE": "EL", "NUTS_NAME": "\u0399\u03ba\u03b1\u03c1\u03af\u03b1, \u03a3\u03ac\u03bc\u03bf\u03c2", "LEVL_CODE": 3, "FID": "EL412", "NUTS_ID": "EL412"}, "id": "EL412"}, {"geometry": {"type": "Point", "coordinates": [26.0265, 38.4077]}, "type": "Feature", "properties": {"CNTR_CODE": "EL", "NUTS_NAME": "\u03a7\u03af\u03bf\u03c2", "LEVL_CODE": 3, "FID": "EL413", "NUTS_ID": "EL413"}, "id": "EL413"}, {"geometry": {"type": "Point", "coordinates": [27.9147, 36.1601]}, "type": "Feature", "properties": {"CNTR_CODE": "EL", "NUTS_NAME": "\u039a\u03ac\u03bb\u03c5\u03bc\u03bd\u03bf\u03c2, \u039a\u03ac\u03c1\u03c0\u03b1\u03b8\u03bf\u03c2, \u039a\u03c9\u03c2, \u03a1\u03cc\u03b4\u03bf\u03c2", "LEVL_CODE": 3, "FID": "EL421", "NUTS_ID": "EL421"}, "id": "EL421"}, {"geometry": {"type": "Point", "coordinates": [25.48, 37.0472]}, "type": "Feature", "properties": {"CNTR_CODE": "EL", "NUTS_NAME": "\u0386\u03bd\u03b4\u03c1\u03bf\u03c2, \u0398\u03ae\u03c1\u03b1, \u039a\u03ad\u03b1, \u039c\u03ae\u03bb\u03bf\u03c2, \u039c\u03cd\u03ba\u03bf\u03bd\u03bf\u03c2, \u039d\u03ac\u03be\u03bf\u03c2, \u03a0\u03ac\u03c1\u03bf\u03c2, \u03a3\u03cd\u03c1\u03bf\u03c2, \u03a4\u03ae\u03bd\u03bf\u03c2", "LEVL_CODE": 3, "FID": "EL422", "NUTS_ID": "EL422"}, "id": "EL422"}, {"geometry": {"type": "Point", "coordinates": [25.1337, 35.1469]}, "type": "Feature", "properties": {"CNTR_CODE": "EL", "NUTS_NAME": "\u0397\u03c1\u03ac\u03ba\u03bb\u03b5\u03b9\u03bf", "LEVL_CODE": 3, "FID": "EL431", "NUTS_ID": "EL431"}, "id": "EL431"}, {"geometry": {"type": "Point", "coordinates": [26.0291, 35.1076]}, "type": "Feature", "properties": {"CNTR_CODE": "EL", "NUTS_NAME": "\u039b\u03b1\u03c3\u03af\u03b8\u03b9", "LEVL_CODE": 3, "FID": "EL432", "NUTS_ID": "EL432"}, "id": "EL432"}, {"geometry": {"type": "Point", "coordinates": [24.5993, 35.2638]}, "type": "Feature", "properties": {"CNTR_CODE": "EL", "NUTS_NAME": "\u03a1\u03b5\u03b8\u03cd\u03bc\u03bd\u03b7", "LEVL_CODE": 3, "FID": "EL433", "NUTS_ID": "EL433"}, "id": "EL433"}, {"geometry": {"type": "Point", "coordinates": [23.9478, 35.3603]}, "type": "Feature", "properties": {"CNTR_CODE": "EL", "NUTS_NAME": "\u03a7\u03b1\u03bd\u03b9\u03ac", "LEVL_CODE": 3, "FID": "EL434", "NUTS_ID": "EL434"}, "id": "EL434"}, {"geometry": {"type": "Point", "coordinates": [26.1538, 41.2036]}, "type": "Feature", "properties": {"CNTR_CODE": "EL", "NUTS_NAME": "\u0388\u03b2\u03c1\u03bf\u03c2", "LEVL_CODE": 3, "FID": "EL511", "NUTS_ID": "EL511"}, "id": "EL511"}, {"geometry": {"type": "Point", "coordinates": [24.8923, 41.1586]}, "type": "Feature", "properties": {"CNTR_CODE": "EL", "NUTS_NAME": "\u039e\u03ac\u03bd\u03b8\u03b7", "LEVL_CODE": 3, "FID": "EL512", "NUTS_ID": "EL512"}, "id": "EL512"}, {"geometry": {"type": "Point", "coordinates": [25.5038, 41.1102]}, "type": "Feature", "properties": {"CNTR_CODE": "EL", "NUTS_NAME": "\u03a1\u03bf\u03b4\u03cc\u03c0\u03b7", "LEVL_CODE": 3, "FID": "EL513", "NUTS_ID": "EL513"}, "id": "EL513"}, {"geometry": {"type": "Point", "coordinates": [24.204, 41.3128]}, "type": "Feature", "properties": {"CNTR_CODE": "EL", "NUTS_NAME": "\u0394\u03c1\u03ac\u03bc\u03b1", "LEVL_CODE": 3, "FID": "EL514", "NUTS_ID": "EL514"}, "id": "EL514"}, {"geometry": {"type": "Point", "coordinates": [24.3406, 40.9786]}, "type": "Feature", "properties": {"CNTR_CODE": "EL", "NUTS_NAME": "\u0398\u03ac\u03c3\u03bf\u03c2, \u039a\u03b1\u03b2\u03ac\u03bb\u03b1", "LEVL_CODE": 3, "FID": "EL515", "NUTS_ID": "EL515"}, "id": "EL515"}, {"geometry": {"type": "Point", "coordinates": [22.2606, 40.554]}, "type": "Feature", "properties": {"CNTR_CODE": "EL", "NUTS_NAME": "\u0397\u03bc\u03b1\u03b8\u03af\u03b1", "LEVL_CODE": 3, "FID": "EL521", "NUTS_ID": "EL521"}, "id": "EL521"}, {"geometry": {"type": "Point", "coordinates": [23.1252, 40.695]}, "type": "Feature", "properties": {"CNTR_CODE": "EL", "NUTS_NAME": "\u0398\u03b5\u03c3\u03c3\u03b1\u03bb\u03bf\u03bd\u03af\u03ba\u03b7", "LEVL_CODE": 3, "FID": "EL522", "NUTS_ID": "EL522"}, "id": "EL522"}, {"geometry": {"type": "Point", "coordinates": [22.7978, 41.0527]}, "type": "Feature", "properties": {"CNTR_CODE": "EL", "NUTS_NAME": "\u039a\u03b9\u03bb\u03ba\u03af\u03c2", "LEVL_CODE": 3, "FID": "EL523", "NUTS_ID": "EL523"}, "id": "EL523"}, {"geometry": {"type": "Point", "coordinates": [22.1313, 40.8905]}, "type": "Feature", "properties": {"CNTR_CODE": "EL", "NUTS_NAME": "\u03a0\u03ad\u03bb\u03bb\u03b1", "LEVL_CODE": 3, "FID": "EL524", "NUTS_ID": "EL524"}, "id": "EL524"}, {"geometry": {"type": "Point", "coordinates": [22.4282, 40.2691]}, "type": "Feature", "properties": {"CNTR_CODE": "EL", "NUTS_NAME": "\u03a0\u03b9\u03b5\u03c1\u03af\u03b1", "LEVL_CODE": 3, "FID": "EL525", "NUTS_ID": "EL525"}, "id": "EL525"}, {"geometry": {"type": "Point", "coordinates": [23.5376, 41.0856]}, "type": "Feature", "properties": {"CNTR_CODE": "EL", "NUTS_NAME": "\u03a3\u03ad\u03c1\u03c1\u03b5\u03c2", "LEVL_CODE": 3, "FID": "EL526", "NUTS_ID": "EL526"}, "id": "EL526"}, {"geometry": {"type": "Point", "coordinates": [23.4324, 40.4128]}, "type": "Feature", "properties": {"CNTR_CODE": "EL", "NUTS_NAME": "\u03a7\u03b1\u03bb\u03ba\u03b9\u03b4\u03b9\u03ba\u03ae", "LEVL_CODE": 3, "FID": "EL527", "NUTS_ID": "EL527"}, "id": "EL527"}, {"geometry": {"type": "Point", "coordinates": [21.6126, 40.2023]}, "type": "Feature", "properties": {"CNTR_CODE": "EL", "NUTS_NAME": "\u0393\u03c1\u03b5\u03b2\u03b5\u03bd\u03ac, \u039a\u03bf\u03b6\u03ac\u03bd\u03b7", "LEVL_CODE": 3, "FID": "EL531", "NUTS_ID": "EL531"}, "id": "EL531"}, {"geometry": {"type": "Point", "coordinates": [21.1485, 40.4647]}, "type": "Feature", "properties": {"CNTR_CODE": "EL", "NUTS_NAME": "\u039a\u03b1\u03c3\u03c4\u03bf\u03c1\u03b9\u03ac", "LEVL_CODE": 3, "FID": "EL532", "NUTS_ID": "EL532"}, "id": "EL532"}, {"geometry": {"type": "Point", "coordinates": [21.4299, 40.7541]}, "type": "Feature", "properties": {"CNTR_CODE": "EL", "NUTS_NAME": "\u03a6\u03bb\u03ce\u03c1\u03b9\u03bd\u03b1", "LEVL_CODE": 3, "FID": "EL533", "NUTS_ID": "EL533"}, "id": "EL533"}, {"geometry": {"type": "Point", "coordinates": [20.9663, 39.2373]}, "type": "Feature", "properties": {"CNTR_CODE": "EL", "NUTS_NAME": "\u0386\u03c1\u03c4\u03b1, \u03a0\u03c1\u03ad\u03b2\u03b5\u03b6\u03b1", "LEVL_CODE": 3, "FID": "EL541", "NUTS_ID": "EL541"}, "id": "EL541"}, {"geometry": {"type": "Point", "coordinates": [20.4014, 39.5259]}, "type": "Feature", "properties": {"CNTR_CODE": "EL", "NUTS_NAME": "\u0398\u03b5\u03c3\u03c0\u03c1\u03c9\u03c4\u03af\u03b1", "LEVL_CODE": 3, "FID": "EL542", "NUTS_ID": "EL542"}, "id": "EL542"}, {"geometry": {"type": "Point", "coordinates": [20.8113, 39.8021]}, "type": "Feature", "properties": {"CNTR_CODE": "EL", "NUTS_NAME": "\u0399\u03c9\u03ac\u03bd\u03bd\u03b9\u03bd\u03b1", "LEVL_CODE": 3, "FID": "EL543", "NUTS_ID": "EL543"}, "id": "EL543"}, {"geometry": {"type": "Point", "coordinates": [21.7057, 39.5008]}, "type": "Feature", "properties": {"CNTR_CODE": "EL", "NUTS_NAME": "\u039a\u03b1\u03c1\u03b4\u03af\u03c4\u03c3\u03b1, \u03a4\u03c1\u03af\u03ba\u03b1\u03bb\u03b1", "LEVL_CODE": 3, "FID": "EL611", "NUTS_ID": "EL611"}, "id": "EL611"}, {"geometry": {"type": "Point", "coordinates": [22.4055, 39.6943]}, "type": "Feature", "properties": {"CNTR_CODE": "EL", "NUTS_NAME": "\u039b\u03ac\u03c1\u03b9\u03c3\u03b1", "LEVL_CODE": 3, "FID": "EL612", "NUTS_ID": "EL612"}, "id": "EL612"}, {"geometry": {"type": "Point", "coordinates": [22.6523, 39.1903]}, "type": "Feature", "properties": {"CNTR_CODE": "EL", "NUTS_NAME": "\u039c\u03b1\u03b3\u03bd\u03b7\u03c3\u03af\u03b1, \u03a3\u03c0\u03bf\u03c1\u03ac\u03b4\u03b5\u03c2", "LEVL_CODE": 3, "FID": "EL613", "NUTS_ID": "EL613"}, "id": "EL613"}, {"geometry": {"type": "Point", "coordinates": [20.7642, 37.7923]}, "type": "Feature", "properties": {"CNTR_CODE": "EL", "NUTS_NAME": "\u0396\u03ac\u03ba\u03c5\u03bd\u03b8\u03bf\u03c2", "LEVL_CODE": 3, "FID": "EL621", "NUTS_ID": "EL621"}, "id": "EL621"}, {"geometry": {"type": "Point", "coordinates": [19.7805, 39.6984]}, "type": "Feature", "properties": {"CNTR_CODE": "EL", "NUTS_NAME": "\u039a\u03ad\u03c1\u03ba\u03c5\u03c1\u03b1", "LEVL_CODE": 3, "FID": "EL622", "NUTS_ID": "EL622"}, "id": "EL622"}, {"geometry": {"type": "Point", "coordinates": [20.5459, 38.2459]}, "type": "Feature", "properties": {"CNTR_CODE": "EL", "NUTS_NAME": "\u0399\u03b8\u03ac\u03ba\u03b7, \u039a\u03b5\u03c6\u03b1\u03bb\u03bb\u03b7\u03bd\u03af\u03b1", "LEVL_CODE": 3, "FID": "EL623", "NUTS_ID": "EL623"}, "id": "EL623"}, {"geometry": {"type": "Point", "coordinates": [20.6494, 38.7128]}, "type": "Feature", "properties": {"CNTR_CODE": "EL", "NUTS_NAME": "\u039b\u03b5\u03c5\u03ba\u03ac\u03b4\u03b1", "LEVL_CODE": 3, "FID": "EL624", "NUTS_ID": "EL624"}, "id": "EL624"}, {"geometry": {"type": "Point", "coordinates": [21.3834, 38.6849]}, "type": "Feature", "properties": {"CNTR_CODE": "EL", "NUTS_NAME": "\u0391\u03b9\u03c4\u03c9\u03bb\u03bf\u03b1\u03ba\u03b1\u03c1\u03bd\u03b1\u03bd\u03af\u03b1", "LEVL_CODE": 3, "FID": "EL631", "NUTS_ID": "EL631"}, "id": "EL631"}, {"geometry": {"type": "Point", "coordinates": [21.94, 38.0533]}, "type": "Feature", "properties": {"CNTR_CODE": "EL", "NUTS_NAME": "\u0391\u03c7\u03b1\u0390\u03b1", "LEVL_CODE": 3, "FID": "EL632", "NUTS_ID": "EL632"}, "id": "EL632"}, {"geometry": {"type": "Point", "coordinates": [21.5796, 37.7287]}, "type": "Feature", "properties": {"CNTR_CODE": "EL", "NUTS_NAME": "\u0397\u03bb\u03b5\u03af\u03b1", "LEVL_CODE": 3, "FID": "EL633", "NUTS_ID": "EL633"}, "id": "EL633"}, {"geometry": {"type": "Point", "coordinates": [23.0907, 38.3684]}, "type": "Feature", "properties": {"CNTR_CODE": "EL", "NUTS_NAME": "\u0392\u03bf\u03b9\u03c9\u03c4\u03af\u03b1", "LEVL_CODE": 3, "FID": "EL641", "NUTS_ID": "EL641"}, "id": "EL641"}, {"geometry": {"type": "Point", "coordinates": [23.741, 38.5324]}, "type": "Feature", "properties": {"CNTR_CODE": "EL", "NUTS_NAME": "\u0395\u03cd\u03b2\u03bf\u03b9\u03b1", "LEVL_CODE": 3, "FID": "EL642", "NUTS_ID": "EL642"}, "id": "EL642"}, {"geometry": {"type": "Point", "coordinates": [21.697, 38.9853]}, "type": "Feature", "properties": {"CNTR_CODE": "EL", "NUTS_NAME": "\u0395\u03c5\u03c1\u03c5\u03c4\u03b1\u03bd\u03af\u03b1", "LEVL_CODE": 3, "FID": "EL643", "NUTS_ID": "EL643"}, "id": "EL643"}, {"geometry": {"type": "Point", "coordinates": [22.2503, 39.0198]}, "type": "Feature", "properties": {"CNTR_CODE": "EL", "NUTS_NAME": "\u03a6\u03b8\u03b9\u03ce\u03c4\u03b9\u03b4\u03b1", "LEVL_CODE": 3, "FID": "EL644", "NUTS_ID": "EL644"}, "id": "EL644"}, {"geometry": {"type": "Point", "coordinates": [22.2371, 38.5439]}, "type": "Feature", "properties": {"CNTR_CODE": "EL", "NUTS_NAME": "\u03a6\u03c9\u03ba\u03af\u03b4\u03b1", "LEVL_CODE": 3, "FID": "EL645", "NUTS_ID": "EL645"}, "id": "EL645"}, {"geometry": {"type": "Point", "coordinates": [22.4963, 37.5398]}, "type": "Feature", "properties": {"CNTR_CODE": "EL", "NUTS_NAME": "\u0391\u03c1\u03b3\u03bf\u03bb\u03af\u03b4\u03b1, \u0391\u03c1\u03ba\u03b1\u03b4\u03af\u03b1", "LEVL_CODE": 3, "FID": "EL651", "NUTS_ID": "EL651"}, "id": "EL651"}, {"geometry": {"type": "Point", "coordinates": [22.7044, 37.9177]}, "type": "Feature", "properties": {"CNTR_CODE": "EL", "NUTS_NAME": "\u039a\u03bf\u03c1\u03b9\u03bd\u03b8\u03af\u03b1", "LEVL_CODE": 3, "FID": "EL652", "NUTS_ID": "EL652"}, "id": "EL652"}, {"geometry": {"type": "Point", "coordinates": [22.3124, 37.0396]}, "type": "Feature", "properties": {"CNTR_CODE": "EL", "NUTS_NAME": "\u039b\u03b1\u03ba\u03c9\u03bd\u03af\u03b1, \u039c\u03b5\u03c3\u03c3\u03b7\u03bd\u03af\u03b1", "LEVL_CODE": 3, "FID": "EL653", "NUTS_ID": "EL653"}, "id": "EL653"}, {"geometry": {"type": "Point", "coordinates": [-8.4781, 43.093]}, "type": "Feature", "properties": {"CNTR_CODE": "ES", "NUTS_NAME": "A Coru\u00f1a", "LEVL_CODE": 3, "FID": "ES111", "NUTS_ID": "ES111"}, "id": "ES111"}, {"geometry": {"type": "Point", "coordinates": [-7.4452, 43.0167]}, "type": "Feature", "properties": {"CNTR_CODE": "ES", "NUTS_NAME": "Lugo", "LEVL_CODE": 3, "FID": "ES112", "NUTS_ID": "ES112"}, "id": "ES112"}, {"geometry": {"type": "Point", "coordinates": [-7.5385, 42.1201]}, "type": "Feature", "properties": {"CNTR_CODE": "ES", "NUTS_NAME": "Ourense", "LEVL_CODE": 3, "FID": "ES113", "NUTS_ID": "ES113"}, "id": "ES113"}, {"geometry": {"type": "Point", "coordinates": [-8.4513, 42.4335]}, "type": "Feature", "properties": {"CNTR_CODE": "ES", "NUTS_NAME": "Pontevedra", "LEVL_CODE": 3, "FID": "ES114", "NUTS_ID": "ES114"}, "id": "ES114"}, {"geometry": {"type": "Point", "coordinates": [-5.9972, 43.3017]}, "type": "Feature", "properties": {"CNTR_CODE": "ES", "NUTS_NAME": "Asturias", "LEVL_CODE": 3, "FID": "ES120", "NUTS_ID": "ES120"}, "id": "ES120"}, {"geometry": {"type": "Point", "coordinates": [-4.0606, 43.1875]}, "type": "Feature", "properties": {"CNTR_CODE": "ES", "NUTS_NAME": "Cantabria", "LEVL_CODE": 3, "FID": "ES130", "NUTS_ID": "ES130"}, "id": "ES130"}, {"geometry": {"type": "Point", "coordinates": [-2.6816, 42.8541]}, "type": "Feature", "properties": {"CNTR_CODE": "ES", "NUTS_NAME": "Araba/\u00c1lava", "LEVL_CODE": 3, "FID": "ES211", "NUTS_ID": "ES211"}, "id": "ES211"}, {"geometry": {"type": "Point", "coordinates": [-2.1867, 43.156]}, "type": "Feature", "properties": {"CNTR_CODE": "ES", "NUTS_NAME": "Gipuzkoa", "LEVL_CODE": 3, "FID": "ES212", "NUTS_ID": "ES212"}, "id": "ES212"}, {"geometry": {"type": "Point", "coordinates": [-2.8328, 43.2576]}, "type": "Feature", "properties": {"CNTR_CODE": "ES", "NUTS_NAME": "Bizkaia", "LEVL_CODE": 3, "FID": "ES213", "NUTS_ID": "ES213"}, "id": "ES213"}, {"geometry": {"type": "Point", "coordinates": [-1.6508, 42.7117]}, "type": "Feature", "properties": {"CNTR_CODE": "ES", "NUTS_NAME": "Navarra", "LEVL_CODE": 3, "FID": "ES220", "NUTS_ID": "ES220"}, "id": "ES220"}, {"geometry": {"type": "Point", "coordinates": [-2.4332, 42.3132]}, "type": "Feature", "properties": {"CNTR_CODE": "ES", "NUTS_NAME": "La Rioja", "LEVL_CODE": 3, "FID": "ES230", "NUTS_ID": "ES230"}, "id": "ES230"}, {"geometry": {"type": "Point", "coordinates": [-0.0859, 42.2138]}, "type": "Feature", "properties": {"CNTR_CODE": "ES", "NUTS_NAME": "Huesca", "LEVL_CODE": 3, "FID": "ES241", "NUTS_ID": "ES241"}, "id": "ES241"}, {"geometry": {"type": "Point", "coordinates": [-0.8345, 40.6511]}, "type": "Feature", "properties": {"CNTR_CODE": "ES", "NUTS_NAME": "Teruel", "LEVL_CODE": 3, "FID": "ES242", "NUTS_ID": "ES242"}, "id": "ES242"}, {"geometry": {"type": "Point", "coordinates": [-1.055, 41.6013]}, "type": "Feature", "properties": {"CNTR_CODE": "ES", "NUTS_NAME": "Zaragoza", "LEVL_CODE": 3, "FID": "ES243", "NUTS_ID": "ES243"}, "id": "ES243"}, {"geometry": {"type": "Point", "coordinates": [20.0708, 41.1389]}, "type": "Feature", "properties": {"CNTR_CODE": "AL", "NUTS_NAME": "SHQIP\u00cbRIA", "LEVL_CODE": 0, "FID": "AL", "NUTS_ID": "AL"}, "id": "AL"}, {"geometry": {"type": "Point", "coordinates": [14.1373, 47.5847]}, "type": "Feature", "properties": {"CNTR_CODE": "AT", "NUTS_NAME": "\u00d6STERREICH", "LEVL_CODE": 0, "FID": "AT", "NUTS_ID": "AT"}, "id": "AT"}, {"geometry": {"type": "Point", "coordinates": [4.6593, 50.6429]}, "type": "Feature", "properties": {"CNTR_CODE": "BE", "NUTS_NAME": "BELGIQUE-BELGI\u00cb ", "LEVL_CODE": 0, "FID": "BE", "NUTS_ID": "BE"}, "id": "BE"}, {"geometry": {"type": "Point", "coordinates": [25.235, 42.7546]}, "type": "Feature", "properties": {"CNTR_CODE": "BG", "NUTS_NAME": "\u0411\u042a\u041b\u0413\u0410\u0420\u0418\u042f", "LEVL_CODE": 0, "FID": "BG", "NUTS_ID": "BG"}, "id": "BG"}, {"geometry": {"type": "Point", "coordinates": [8.2129, 46.9548]}, "type": "Feature", "properties": {"CNTR_CODE": "CH", "NUTS_NAME": "SCHWEIZ/SUISSE/SVIZZERA", "LEVL_CODE": 0, "FID": "CH", "NUTS_ID": "CH"}, "id": "CH"}, {"geometry": {"type": "Point", "coordinates": [33.1739, 35.0284]}, "type": "Feature", "properties": {"CNTR_CODE": "CY", "NUTS_NAME": "\u039a\u03a5\u03a0\u03a1\u039f\u03a3", "LEVL_CODE": 0, "FID": "CY", "NUTS_ID": "CY"}, "id": "CY"}, {"geometry": {"type": "Point", "coordinates": [15.3276, 49.7382]}, "type": "Feature", "properties": {"CNTR_CODE": "CZ", "NUTS_NAME": "\u010cESK\u00c1 REPUBLIKA", "LEVL_CODE": 0, "FID": "CZ", "NUTS_ID": "CZ"}, "id": "CZ"}, {"geometry": {"type": "Point", "coordinates": [10.3786, 51.0735]}, "type": "Feature", "properties": {"CNTR_CODE": "DE", "NUTS_NAME": "DEUTSCHLAND", "LEVL_CODE": 0, "FID": "DE", "NUTS_ID": "DE"}, "id": "DE"}, {"geometry": {"type": "Point", "coordinates": [9.3193, 56.0271]}, "type": "Feature", "properties": {"CNTR_CODE": "DK", "NUTS_NAME": "DANMARK", "LEVL_CODE": 0, "FID": "DK", "NUTS_ID": "DK"}, "id": "DK"}, {"geometry": {"type": "Point", "coordinates": [25.8548, 58.6709]}, "type": "Feature", "properties": {"CNTR_CODE": "EE", "NUTS_NAME": "EESTI", "LEVL_CODE": 0, "FID": "EE", "NUTS_ID": "EE"}, "id": "EE"}, {"geometry": {"type": "Point", "coordinates": [22.5402, 39.4982]}, "type": "Feature", "properties": {"CNTR_CODE": "EL", "NUTS_NAME": "\u0395\u039b\u039b\u0391\u0394\u0391", "LEVL_CODE": 0, "FID": "EL", "NUTS_ID": "EL"}, "id": "EL"}, {"geometry": {"type": "Point", "coordinates": [-3.5521, 40.3816]}, "type": "Feature", "properties": {"CNTR_CODE": "ES", "NUTS_NAME": "ESPA\u00d1A ", "LEVL_CODE": 0, "FID": "ES", "NUTS_ID": "ES"}, "id": "ES"}, {"geometry": {"type": "Point", "coordinates": [26.2795, 64.4974]}, "type": "Feature", "properties": {"CNTR_CODE": "FI", "NUTS_NAME": "SUOMI / FINLAND", "LEVL_CODE": 0, "FID": "FI", "NUTS_ID": "FI"}, "id": "FI"}, {"geometry": {"type": "Point", "coordinates": [2.5059, 46.6183]}, "type": "Feature", "properties": {"CNTR_CODE": "FR", "NUTS_NAME": "FRANCE", "LEVL_CODE": 0, "FID": "FR", "NUTS_ID": "FR"}, "id": "FR"}, {"geometry": {"type": "Point", "coordinates": [16.4894, 43.756]}, "type": "Feature", "properties": {"CNTR_CODE": "HR", "NUTS_NAME": "HRVATSKA", "LEVL_CODE": 0, "FID": "HR", "NUTS_ID": "HR"}, "id": "HR"}, {"geometry": {"type": "Point", "coordinates": [19.4066, 47.1616]}, "type": "Feature", "properties": {"CNTR_CODE": "HU", "NUTS_NAME": "MAGYARORSZ\u00c1G", "LEVL_CODE": 0, "FID": "HU", "NUTS_ID": "HU"}, "id": "HU"}, {"geometry": {"type": "Point", "coordinates": [-8.0902, 53.1794]}, "type": "Feature", "properties": {"CNTR_CODE": "IE", "NUTS_NAME": "IRELAND", "LEVL_CODE": 0, "FID": "IE", "NUTS_ID": "IE"}, "id": "IE"}, {"geometry": {"type": "Point", "coordinates": [-18.8569, 64.756]}, "type": "Feature", "properties": {"CNTR_CODE": "IS", "NUTS_NAME": "\u00cdSLAND", "LEVL_CODE": 0, "FID": "IS", "NUTS_ID": "IS"}, "id": "IS"}, {"geometry": {"type": "Point", "coordinates": [12.5322, 42.837]}, "type": "Feature", "properties": {"CNTR_CODE": "IT", "NUTS_NAME": "ITALIA", "LEVL_CODE": 0, "FID": "IT", "NUTS_ID": "IT"}, "id": "IT"}, {"geometry": {"type": "Point", "coordinates": [9.5534, 47.1383]}, "type": "Feature", "properties": {"CNTR_CODE": "LI", "NUTS_NAME": "LIECHTENSTEIN", "LEVL_CODE": 0, "FID": "LI", "NUTS_ID": "LI"}, "id": "LI"}, {"geometry": {"type": "Point", "coordinates": [23.9197, 55.3351]}, "type": "Feature", "properties": {"CNTR_CODE": "LT", "NUTS_NAME": "LIETUVA", "LEVL_CODE": 0, "FID": "LT", "NUTS_ID": "LT"}, "id": "LT"}, {"geometry": {"type": "Point", "coordinates": [6.0943, 49.771]}, "type": "Feature", "properties": {"CNTR_CODE": "LU", "NUTS_NAME": "LUXEMBOURG", "LEVL_CODE": 0, "FID": "LU", "NUTS_ID": "LU"}, "id": "LU"}, {"geometry": {"type": "Point", "coordinates": [26.382, 56.6829]}, "type": "Feature", "properties": {"CNTR_CODE": "LV", "NUTS_NAME": "LATVIJA", "LEVL_CODE": 0, "FID": "LV", "NUTS_ID": "LV"}, "id": "LV"}, {"geometry": {"type": "Point", "coordinates": [19.269, 42.7721]}, "type": "Feature", "properties": {"CNTR_CODE": "ME", "NUTS_NAME": "\u0426\u0420\u041d\u0410 \u0413\u041e\u0420\u0410", "LEVL_CODE": 0, "FID": "ME", "NUTS_ID": "ME"}, "id": "ME"}, {"geometry": {"type": "Point", "coordinates": [21.6966, 41.5981]}, "type": "Feature", "properties": {"CNTR_CODE": "MK", "NUTS_NAME": "North Macedonia", "LEVL_CODE": 0, "FID": "MK", "NUTS_ID": "MK"}, "id": "MK"}, {"geometry": {"type": "Point", "coordinates": [14.4312, 35.886]}, "type": "Feature", "properties": {"CNTR_CODE": "MT", "NUTS_NAME": "MALTA", "LEVL_CODE": 0, "FID": "MT", "NUTS_ID": "MT"}, "id": "MT"}, {"geometry": {"type": "Point", "coordinates": [5.646, 52.2932]}, "type": "Feature", "properties": {"CNTR_CODE": "NL", "NUTS_NAME": "NEDERLAND", "LEVL_CODE": 0, "FID": "NL", "NUTS_ID": "NL"}, "id": "NL"}, {"geometry": {"type": "Point", "coordinates": [11.4948, 61.7103]}, "type": "Feature", "properties": {"CNTR_CODE": "NO", "NUTS_NAME": "NORGE", "LEVL_CODE": 0, "FID": "NO", "NUTS_ID": "NO"}, "id": "NO"}, {"geometry": {"type": "Point", "coordinates": [19.4066, 52.1309]}, "type": "Feature", "properties": {"CNTR_CODE": "PL", "NUTS_NAME": "POLSKA", "LEVL_CODE": 0, "FID": "PL", "NUTS_ID": "PL"}, "id": "PL"}, {"geometry": {"type": "Point", "coordinates": [-7.9703, 39.6868]}, "type": "Feature", "properties": {"CNTR_CODE": "PT", "NUTS_NAME": "PORTUGAL", "LEVL_CODE": 0, "FID": "PT", "NUTS_ID": "PT"}, "id": "PT"}, {"geometry": {"type": "Point", "coordinates": [24.9778, 45.8361]}, "type": "Feature", "properties": {"CNTR_CODE": "RO", "NUTS_NAME": "ROM\u00c2NIA", "LEVL_CODE": 0, "FID": "RO", "NUTS_ID": "RO"}, "id": "RO"}, {"geometry": {"type": "Point", "coordinates": [20.7975, 44.2355]}, "type": "Feature", "properties": {"CNTR_CODE": "RS", "NUTS_NAME": "REPUBLIKA SRBIJA /\u0420\u0415\u041f\u0423\u0411\u041b\u0418\u041a\u0410 \u0421\u0420\u0411\u0418\u0408\u0410", "LEVL_CODE": 0, "FID": "RS", "NUTS_ID": "RS"}, "id": "RS"}, {"geometry": {"type": "Point", "coordinates": [14.4445, 60.6418]}, "type": "Feature", "properties": {"CNTR_CODE": "SE", "NUTS_NAME": "SVERIGE", "LEVL_CODE": 0, "FID": "SE", "NUTS_ID": "SE"}, "id": "SE"}, {"geometry": {"type": "Point", "coordinates": [14.8169, 46.1277]}, "type": "Feature", "properties": {"CNTR_CODE": "SI", "NUTS_NAME": "SLOVENIJA", "LEVL_CODE": 0, "FID": "SI", "NUTS_ID": "SI"}, "id": "SI"}, {"geometry": {"type": "Point", "coordinates": [19.4741, 48.7042]}, "type": "Feature", "properties": {"CNTR_CODE": "SK", "NUTS_NAME": "SLOVENSKO", "LEVL_CODE": 0, "FID": "SK", "NUTS_ID": "SK"}, "id": "SK"}, {"geometry": {"type": "Point", "coordinates": [35.4709, 38.9923]}, "type": "Feature", "properties": {"CNTR_CODE": "TR", "NUTS_NAME": "T\u00dcRKIYE", "LEVL_CODE": 0, "FID": "TR", "NUTS_ID": "TR"}, "id": "TR"}, {"geometry": {"type": "Point", "coordinates": [-2.1086, 53.2786]}, "type": "Feature", "properties": {"CNTR_CODE": "UK", "NUTS_NAME": "UNITED KINGDOM", "LEVL_CODE": 0, "FID": "UK", "NUTS_ID": "UK"}, "id": "UK"}, {"geometry": {"type": "Point", "coordinates": [20.0708, 41.1389]}, "type": "Feature", "properties": {"CNTR_CODE": "AL", "NUTS_NAME": "SHQIP\u00cbRIA", "LEVL_CODE": 1, "FID": "AL0", "NUTS_ID": "AL0"}, "id": "AL0"}, {"geometry": {"type": "Point", "coordinates": [15.8797, 48.1513]}, "type": "Feature", "properties": {"CNTR_CODE": "AT", "NUTS_NAME": "OST\u00d6STERREICH", "LEVL_CODE": 1, "FID": "AT1", "NUTS_ID": "AT1"}, "id": "AT1"}, {"geometry": {"type": "Point", "coordinates": [14.6061, 47.0797]}, "type": "Feature", "properties": {"CNTR_CODE": "AT", "NUTS_NAME": "S\u00dcD\u00d6STERREICH", "LEVL_CODE": 1, "FID": "AT2", "NUTS_ID": "AT2"}, "id": "AT2"}, {"geometry": {"type": "Point", "coordinates": [12.2455, 47.2803]}, "type": "Feature", "properties": {"CNTR_CODE": "AT", "NUTS_NAME": "WEST\u00d6STERREICH", "LEVL_CODE": 1, "FID": "AT3", "NUTS_ID": "AT3"}, "id": "AT3"}, {"geometry": {"type": "Point", "coordinates": [4.3569, 50.8401]}, "type": "Feature", "properties": {"CNTR_CODE": "BE", "NUTS_NAME": "R\u00c9GION DE BRUXELLES-CAPITALE/BRUSSELS HOOFDSTEDELIJK GEWEST", "LEVL_CODE": 1, "FID": "BE1", "NUTS_ID": "BE1"}, "id": "BE1"}, {"geometry": {"type": "Point", "coordinates": [4.9852, 51.1013]}, "type": "Feature", "properties": {"CNTR_CODE": "BE", "NUTS_NAME": "VLAAMS GEWEST", "LEVL_CODE": 1, "FID": "BE2", "NUTS_ID": "BE2"}, "id": "BE2"}, {"geometry": {"type": "Point", "coordinates": [4.8252, 50.4595]}, "type": "Feature", "properties": {"CNTR_CODE": "BE", "NUTS_NAME": "R\u00c9GION WALLONNE", "LEVL_CODE": 1, "FID": "BE3", "NUTS_ID": "BE3"}, "id": "BE3"}, {"geometry": {"type": "Point", "coordinates": [25.8853, 43.1525]}, "type": "Feature", "properties": {"CNTR_CODE": "BG", "NUTS_NAME": "\u0421\u0415\u0412\u0415\u0420\u041d\u0410 \u0418 \u042e\u0413\u041e\u0418\u0417\u0422\u041e\u0427\u041d\u0410 \u0411\u042a\u041b\u0413\u0410\u0420\u0418\u042f", "LEVL_CODE": 1, "FID": "BG3", "NUTS_ID": "BG3"}, "id": "BG3"}, {"geometry": {"type": "Point", "coordinates": [24.1941, 42.1249]}, "type": "Feature", "properties": {"CNTR_CODE": "BG", "NUTS_NAME": "\u042e\u0413\u041e\u0417\u0410\u041f\u0410\u0414\u041d\u0410 \u0418 \u042e\u0416\u041d\u0410 \u0426\u0415\u041d\u0422\u0420\u0410\u041b\u041d\u0410 \u0411\u042a\u041b\u0413\u0410\u0420\u0418\u042f", "LEVL_CODE": 1, "FID": "BG4", "NUTS_ID": "BG4"}, "id": "BG4"}, {"geometry": {"type": "Point", "coordinates": [8.2129, 46.9548]}, "type": "Feature", "properties": {"CNTR_CODE": "CH", "NUTS_NAME": "SCHWEIZ/SUISSE/SVIZZERA", "LEVL_CODE": 1, "FID": "CH0", "NUTS_ID": "CH0"}, "id": "CH0"}, {"geometry": {"type": "Point", "coordinates": [33.1739, 35.0284]}, "type": "Feature", "properties": {"CNTR_CODE": "CY", "NUTS_NAME": "\u039a\u03a5\u03a0\u03a1\u039f\u03a3", "LEVL_CODE": 1, "FID": "CY0", "NUTS_ID": "CY0"}, "id": "CY0"}, {"geometry": {"type": "Point", "coordinates": [15.3276, 49.7382]}, "type": "Feature", "properties": {"CNTR_CODE": "CZ", "NUTS_NAME": "\u010cESK\u00c1 REPUBLIKA", "LEVL_CODE": 1, "FID": "CZ0", "NUTS_ID": "CZ0"}, "id": "CZ0"}, {"geometry": {"type": "Point", "coordinates": [9.0509, 48.5342]}, "type": "Feature", "properties": {"CNTR_CODE": "DE", "NUTS_NAME": "BADEN-W\u00dcRTTEMBERG", "LEVL_CODE": 1, "FID": "DE1", "NUTS_ID": "DE1"}, "id": "DE1"}, {"geometry": {"type": "Point", "coordinates": [11.4213, 48.9474]}, "type": "Feature", "properties": {"CNTR_CODE": "DE", "NUTS_NAME": "BAYERN", "LEVL_CODE": 1, "FID": "DE2", "NUTS_ID": "DE2"}, "id": "DE2"}, {"geometry": {"type": "Point", "coordinates": [13.4022, 52.5005]}, "type": "Feature", "properties": {"CNTR_CODE": "DE", "NUTS_NAME": "BERLIN", "LEVL_CODE": 1, "FID": "DE3", "NUTS_ID": "DE3"}, "id": "DE3"}, {"geometry": {"type": "Point", "coordinates": [12.1381, 53.0836]}, "type": "Feature", "properties": {"CNTR_CODE": "DE", "NUTS_NAME": "BRANDENBURG", "LEVL_CODE": 1, "FID": "DE4", "NUTS_ID": "DE4"}, "id": "DE4"}, {"geometry": {"type": "Point", "coordinates": [8.7877, 53.1065]}, "type": "Feature", "properties": {"CNTR_CODE": "DE", "NUTS_NAME": "BREMEN", "LEVL_CODE": 1, "FID": "DE5", "NUTS_ID": "DE5"}, "id": "DE5"}, {"geometry": {"type": "Point", "coordinates": [10.01, 53.5392]}, "type": "Feature", "properties": {"CNTR_CODE": "DE", "NUTS_NAME": "HAMBURG", "LEVL_CODE": 1, "FID": "DE6", "NUTS_ID": "DE6"}, "id": "DE6"}, {"geometry": {"type": "Point", "coordinates": [9.0325, 50.6006]}, "type": "Feature", "properties": {"CNTR_CODE": "DE", "NUTS_NAME": "HESSEN", "LEVL_CODE": 1, "FID": "DE7", "NUTS_ID": "DE7"}, "id": "DE7"}, {"geometry": {"type": "Point", "coordinates": [12.4675, 53.7138]}, "type": "Feature", "properties": {"CNTR_CODE": "DE", "NUTS_NAME": "MECKLENBURG-VORPOMMERN", "LEVL_CODE": 1, "FID": "DE8", "NUTS_ID": "DE8"}, "id": "DE8"}, {"geometry": {"type": "Point", "coordinates": [9.1837, 52.7621]}, "type": "Feature", "properties": {"CNTR_CODE": "DE", "NUTS_NAME": "NIEDERSACHSEN", "LEVL_CODE": 1, "FID": "DE9", "NUTS_ID": "DE9"}, "id": "DE9"}, {"geometry": {"type": "Point", "coordinates": [7.5507, 51.4749]}, "type": "Feature", "properties": {"CNTR_CODE": "DE", "NUTS_NAME": "NORDRHEIN-WESTFALEN", "LEVL_CODE": 1, "FID": "DEA", "NUTS_ID": "DEA"}, "id": "DEA"}, {"geometry": {"type": "Point", "coordinates": [7.9074, 49.5093]}, "type": "Feature", "properties": {"CNTR_CODE": "DE", "NUTS_NAME": "RHEINLAND-PFALZ", "LEVL_CODE": 1, "FID": "DEB", "NUTS_ID": "DEB"}, "id": "DEB"}, {"geometry": {"type": "Point", "coordinates": [6.957, 49.3922]}, "type": "Feature", "properties": {"CNTR_CODE": "DE", "NUTS_NAME": "SAARLAND", "LEVL_CODE": 1, "FID": "DEC", "NUTS_ID": "DEC"}, "id": "DEC"}, {"geometry": {"type": "Point", "coordinates": [13.3332, 51.0583]}, "type": "Feature", "properties": {"CNTR_CODE": "DE", "NUTS_NAME": "SACHSEN", "LEVL_CODE": 1, "FID": "DED", "NUTS_ID": "DED"}, "id": "DED"}, {"geometry": {"type": "Point", "coordinates": [11.6996, 52.011]}, "type": "Feature", "properties": {"CNTR_CODE": "DE", "NUTS_NAME": "SACHSEN-ANHALT", "LEVL_CODE": 1, "FID": "DEE", "NUTS_ID": "DEE"}, "id": "DEE"}, {"geometry": {"type": "Point", "coordinates": [9.8212, 54.0804]}, "type": "Feature", "properties": {"CNTR_CODE": "DE", "NUTS_NAME": "SCHLESWIG-HOLSTEIN", "LEVL_CODE": 1, "FID": "DEF", "NUTS_ID": "DEF"}, "id": "DEF"}, {"geometry": {"type": "Point", "coordinates": [11.0218, 50.9044]}, "type": "Feature", "properties": {"CNTR_CODE": "DE", "NUTS_NAME": "TH\u00dcRINGEN", "LEVL_CODE": 1, "FID": "DEG", "NUTS_ID": "DEG"}, "id": "DEG"}, {"geometry": {"type": "Point", "coordinates": [9.3193, 56.0271]}, "type": "Feature", "properties": {"CNTR_CODE": "DK", "NUTS_NAME": "DANMARK", "LEVL_CODE": 1, "FID": "DK0", "NUTS_ID": "DK0"}, "id": "DK0"}, {"geometry": {"type": "Point", "coordinates": [25.8548, 58.6709]}, "type": "Feature", "properties": {"CNTR_CODE": "EE", "NUTS_NAME": "EESTI", "LEVL_CODE": 1, "FID": "EE0", "NUTS_ID": "EE0"}, "id": "EE0"}, {"geometry": {"type": "Point", "coordinates": [23.8114, 38.0548]}, "type": "Feature", "properties": {"CNTR_CODE": "EL", "NUTS_NAME": "ATTIK\u0397", "LEVL_CODE": 1, "FID": "EL3", "NUTS_ID": "EL3"}, "id": "EL3"}, {"geometry": {"type": "Point", "coordinates": [24.8224, 35.2248]}, "type": "Feature", "properties": {"CNTR_CODE": "EL", "NUTS_NAME": "N\u0397\u03a3\u0399\u0391 \u0391\u0399\u0393\u0391\u0399\u039f\u03a5, K\u03a1\u0397\u03a4\u0397", "LEVL_CODE": 1, "FID": "EL4", "NUTS_ID": "EL4"}, "id": "EL4"}, {"geometry": {"type": "Point", "coordinates": [23.3044, 40.7986]}, "type": "Feature", "properties": {"CNTR_CODE": "EL", "NUTS_NAME": "\u0392\u039f\u03a1\u0395\u0399\u0391 \u0395\u039b\u039b\u0391\u0394\u0391", "LEVL_CODE": 1, "FID": "EL5", "NUTS_ID": "EL5"}, "id": "EL5"}, {"geometry": {"type": "Point", "coordinates": [22.198, 39.0501]}, "type": "Feature", "properties": {"CNTR_CODE": "EL", "NUTS_NAME": "\u039a\u0395\u039d\u03a4\u03a1\u0399\u039a\u0397 \u0395\u039b\u039b\u0391\u0394\u0391", "LEVL_CODE": 1, "FID": "EL6", "NUTS_ID": "EL6"}, "id": "EL6"}, {"geometry": {"type": "Point", "coordinates": [-7.6953, 42.8192]}, "type": "Feature", "properties": {"CNTR_CODE": "ES", "NUTS_NAME": "NOROESTE", "LEVL_CODE": 1, "FID": "ES1", "NUTS_ID": "ES1"}, "id": "ES1"}, {"geometry": {"type": "Point", "coordinates": [-1.1301, 41.8962]}, "type": "Feature", "properties": {"CNTR_CODE": "ES", "NUTS_NAME": "NORESTE", "LEVL_CODE": 1, "FID": "ES2", "NUTS_ID": "ES2"}, "id": "ES2"}, {"geometry": {"type": "Point", "coordinates": [-3.7119, 40.5008]}, "type": "Feature", "properties": {"CNTR_CODE": "ES", "NUTS_NAME": "COMUNIDAD DE MADRID", "LEVL_CODE": 1, "FID": "ES3", "NUTS_ID": "ES3"}, "id": "ES3"}, {"geometry": {"type": "Point", "coordinates": [-5.8894, 40.5556]}, "type": "Feature", "properties": {"CNTR_CODE": "ES", "NUTS_NAME": "CENTRO (ES)", "LEVL_CODE": 1, "FID": "ES4", "NUTS_ID": "ES4"}, "id": "ES4"}, {"geometry": {"type": "Point", "coordinates": [2.0051, 41.8473]}, "type": "Feature", "properties": {"CNTR_CODE": "ES", "NUTS_NAME": "ESTE", "LEVL_CODE": 1, "FID": "ES5", "NUTS_ID": "ES5"}, "id": "ES5"}, {"geometry": {"type": "Point", "coordinates": [-4.261, 37.5155]}, "type": "Feature", "properties": {"CNTR_CODE": "ES", "NUTS_NAME": "SUR", "LEVL_CODE": 1, "FID": "ES6", "NUTS_ID": "ES6"}, "id": "ES6"}, {"geometry": {"type": "Point", "coordinates": [-16.5646, 28.2457]}, "type": "Feature", "properties": {"CNTR_CODE": "ES", "NUTS_NAME": "CANARIAS", "LEVL_CODE": 1, "FID": "ES7", "NUTS_ID": "ES7"}, "id": "ES7"}, {"geometry": {"type": "Point", "coordinates": [26.2795, 64.4974]}, "type": "Feature", "properties": {"CNTR_CODE": "FI", "NUTS_NAME": "MANNER-SUOMI", "LEVL_CODE": 1, "FID": "FI1", "NUTS_ID": "FI1"}, "id": "FI1"}, {"geometry": {"type": "Point", "coordinates": [20.0931, 60.2653]}, "type": "Feature", "properties": {"CNTR_CODE": "FI", "NUTS_NAME": "\u00c5LAND", "LEVL_CODE": 1, "FID": "FI2", "NUTS_ID": "FI2"}, "id": "FI2"}, {"geometry": {"type": "Point", "coordinates": [2.5234, 48.7196]}, "type": "Feature", "properties": {"CNTR_CODE": "FR", "NUTS_NAME": "ILE-DE-FRANCE", "LEVL_CODE": 1, "FID": "FR1", "NUTS_ID": "FR1"}, "id": "FR1"}, {"geometry": {"type": "Point", "coordinates": [1.6776, 47.4811]}, "type": "Feature", "properties": {"CNTR_CODE": "FR", "NUTS_NAME": "CENTRE - VAL DE LOIRE", "LEVL_CODE": 1, "FID": "FRB", "NUTS_ID": "FRB"}, "id": "FRB"}, {"geometry": {"type": "Point", "coordinates": [4.8083, 47.2297]}, "type": "Feature", "properties": {"CNTR_CODE": "FR", "NUTS_NAME": "BOURGOGNE-FRANCHE-COMT\u00c9", "LEVL_CODE": 1, "FID": "FRC", "NUTS_ID": "FRC"}, "id": "FRC"}, {"geometry": {"type": "Point", "coordinates": [0.0112, 48.8652]}, "type": "Feature", "properties": {"CNTR_CODE": "FR", "NUTS_NAME": "NORMANDIE", "LEVL_CODE": 1, "FID": "FRD", "NUTS_ID": "FRD"}, "id": "FRD"}, {"geometry": {"type": "Point", "coordinates": [2.7686, 49.9703]}, "type": "Feature", "properties": {"CNTR_CODE": "FR", "NUTS_NAME": "NORD-PAS DE CALAIS-PICARDIE", "LEVL_CODE": 1, "FID": "FRE", "NUTS_ID": "FRE"}, "id": "FRE"}, {"geometry": {"type": "Point", "coordinates": [5.6267, 48.6914]}, "type": "Feature", "properties": {"CNTR_CODE": "FR", "NUTS_NAME": "ALSACE-CHAMPAGNE-ARDENNE-LORRAINE", "LEVL_CODE": 1, "FID": "FRF", "NUTS_ID": "FRF"}, "id": "FRF"}, {"geometry": {"type": "Point", "coordinates": [-0.7959, 47.4936]}, "type": "Feature", "properties": {"CNTR_CODE": "FR", "NUTS_NAME": "PAYS DE LA LOIRE", "LEVL_CODE": 1, "FID": "FRG", "NUTS_ID": "FRG"}, "id": "FRG"}, {"geometry": {"type": "Point", "coordinates": [-2.7883, 48.1657]}, "type": "Feature", "properties": {"CNTR_CODE": "FR", "NUTS_NAME": "BRETAGNE", "LEVL_CODE": 1, "FID": "FRH", "NUTS_ID": "FRH"}, "id": "FRH"}, {"geometry": {"type": "Point", "coordinates": [0.3897, 45.4822]}, "type": "Feature", "properties": {"CNTR_CODE": "FR", "NUTS_NAME": "AQUITAINE-LIMOUSIN-POITOU-CHARENTES", "LEVL_CODE": 1, "FID": "FRI", "NUTS_ID": "FRI"}, "id": "FRI"}, {"geometry": {"type": "Point", "coordinates": [2.1442, 43.707]}, "type": "Feature", "properties": {"CNTR_CODE": "FR", "NUTS_NAME": "LANGUEDOC-ROUSSILLON-MIDI-PYR\u00c9N\u00c9ES", "LEVL_CODE": 1, "FID": "FRJ", "NUTS_ID": "FRJ"}, "id": "FRJ"}, {"geometry": {"type": "Point", "coordinates": [4.5927, 45.2815]}, "type": "Feature", "properties": {"CNTR_CODE": "FR", "NUTS_NAME": "AUVERGNE-RH\u00d4NE-ALPES", "LEVL_CODE": 1, "FID": "FRK", "NUTS_ID": "FRK"}, "id": "FRK"}, {"geometry": {"type": "Point", "coordinates": [6.0641, 43.9629]}, "type": "Feature", "properties": {"CNTR_CODE": "FR", "NUTS_NAME": "PROVENCE-ALPES-C\u00d4TE D\u2019AZUR", "LEVL_CODE": 1, "FID": "FRL", "NUTS_ID": "FRL"}, "id": "FRL"}, {"geometry": {"type": "Point", "coordinates": [9.0976, 42.1267]}, "type": "Feature", "properties": {"CNTR_CODE": "FR", "NUTS_NAME": "CORSE", "LEVL_CODE": 1, "FID": "FRM", "NUTS_ID": "FRM"}, "id": "FRM"}, {"geometry": {"type": "Point", "coordinates": [-53.2263, 3.9221]}, "type": "Feature", "properties": {"CNTR_CODE": "FR", "NUTS_NAME": "RUP FR - R\u00c9GIONS ULTRAP\u00c9RIPH\u00c9RIQUES FRAN\u00c7AISES", "LEVL_CODE": 1, "FID": "FRY", "NUTS_ID": "FRY"}, "id": "FRY"}, {"geometry": {"type": "Point", "coordinates": [16.4894, 43.756]}, "type": "Feature", "properties": {"CNTR_CODE": "HR", "NUTS_NAME": "HRVATSKA", "LEVL_CODE": 1, "FID": "HR0", "NUTS_ID": "HR0"}, "id": "HR0"}, {"geometry": {"type": "Point", "coordinates": [19.3111, 47.4258]}, "type": "Feature", "properties": {"CNTR_CODE": "HU", "NUTS_NAME": "K\u00d6Z\u00c9P-MAGYARORSZ\u00c1G", "LEVL_CODE": 1, "FID": "HU1", "NUTS_ID": "HU1"}, "id": "HU1"}, {"geometry": {"type": "Point", "coordinates": [17.7321, 46.8766]}, "type": "Feature", "properties": {"CNTR_CODE": "HU", "NUTS_NAME": "DUN\u00c1NT\u00daL", "LEVL_CODE": 1, "FID": "HU2", "NUTS_ID": "HU2"}, "id": "HU2"}, {"geometry": {"type": "Point", "coordinates": [20.8493, 47.3933]}, "type": "Feature", "properties": {"CNTR_CODE": "HU", "NUTS_NAME": "ALF\u00d6LD \u00c9S \u00c9SZAK", "LEVL_CODE": 1, "FID": "HU3", "NUTS_ID": "HU3"}, "id": "HU3"}, {"geometry": {"type": "Point", "coordinates": [-8.0902, 53.1794]}, "type": "Feature", "properties": {"CNTR_CODE": "IE", "NUTS_NAME": "IRELAND", "LEVL_CODE": 1, "FID": "IE0", "NUTS_ID": "IE0"}, "id": "IE0"}, {"geometry": {"type": "Point", "coordinates": [-18.8569, 64.756]}, "type": "Feature", "properties": {"CNTR_CODE": "IS", "NUTS_NAME": "\u00cdSLAND", "LEVL_CODE": 1, "FID": "IS0", "NUTS_ID": "IS0"}, "id": "IS0"}, {"geometry": {"type": "Point", "coordinates": [8.7282, 45.2602]}, "type": "Feature", "properties": {"CNTR_CODE": "IT", "NUTS_NAME": "NORD-OVEST", "LEVL_CODE": 1, "FID": "ITC", "NUTS_ID": "ITC"}, "id": "ITC"}, {"geometry": {"type": "Point", "coordinates": [15.5982, 40.7741]}, "type": "Feature", "properties": {"CNTR_CODE": "IT", "NUTS_NAME": "SUD", "LEVL_CODE": 1, "FID": "ITF", "NUTS_ID": "ITF"}, "id": "ITF"}, {"geometry": {"type": "Point", "coordinates": [14.1658, 37.5704]}, "type": "Feature", "properties": {"CNTR_CODE": "IT", "NUTS_NAME": "ISOLE", "LEVL_CODE": 1, "FID": "ITG", "NUTS_ID": "ITG"}, "id": "ITG"}, {"geometry": {"type": "Point", "coordinates": [11.5837, 45.5007]}, "type": "Feature", "properties": {"CNTR_CODE": "IT", "NUTS_NAME": "NORD-EST", "LEVL_CODE": 1, "FID": "ITH", "NUTS_ID": "ITH"}, "id": "ITH"}, {"geometry": {"type": "Point", "coordinates": [12.1426, 42.9451]}, "type": "Feature", "properties": {"CNTR_CODE": "IT", "NUTS_NAME": "CENTRO (IT)", "LEVL_CODE": 1, "FID": "ITI", "NUTS_ID": "ITI"}, "id": "ITI"}, {"geometry": {"type": "Point", "coordinates": [9.5534, 47.1383]}, "type": "Feature", "properties": {"CNTR_CODE": "LI", "NUTS_NAME": "LIECHTENSTEIN", "LEVL_CODE": 1, "FID": "LI0", "NUTS_ID": "LI0"}, "id": "LI0"}, {"geometry": {"type": "Point", "coordinates": [23.9197, 55.3351]}, "type": "Feature", "properties": {"CNTR_CODE": "LT", "NUTS_NAME": "LIETUVA", "LEVL_CODE": 1, "FID": "LT0", "NUTS_ID": "LT0"}, "id": "LT0"}, {"geometry": {"type": "Point", "coordinates": [6.0943, 49.771]}, "type": "Feature", "properties": {"CNTR_CODE": "LU", "NUTS_NAME": "LUXEMBOURG", "LEVL_CODE": 1, "FID": "LU0", "NUTS_ID": "LU0"}, "id": "LU0"}, {"geometry": {"type": "Point", "coordinates": [26.382, 56.6829]}, "type": "Feature", "properties": {"CNTR_CODE": "LV", "NUTS_NAME": "LATVIJA", "LEVL_CODE": 1, "FID": "LV0", "NUTS_ID": "LV0"}, "id": "LV0"}, {"geometry": {"type": "Point", "coordinates": [19.269, 42.7721]}, "type": "Feature", "properties": {"CNTR_CODE": "ME", "NUTS_NAME": "\u0426\u0420\u041d\u0410 \u0413\u041e\u0420\u0410", "LEVL_CODE": 1, "FID": "ME0", "NUTS_ID": "ME0"}, "id": "ME0"}, {"geometry": {"type": "Point", "coordinates": [21.6966, 41.5981]}, "type": "Feature", "properties": {"CNTR_CODE": "MK", "NUTS_NAME": "Severna Makedonija", "LEVL_CODE": 1, "FID": "MK0", "NUTS_ID": "MK0"}, "id": "MK0"}, {"geometry": {"type": "Point", "coordinates": [14.4312, 35.886]}, "type": "Feature", "properties": {"CNTR_CODE": "MT", "NUTS_NAME": "MALTA", "LEVL_CODE": 1, "FID": "MT0", "NUTS_ID": "MT0"}, "id": "MT0"}, {"geometry": {"type": "Point", "coordinates": [6.3039, 53.0445]}, "type": "Feature", "properties": {"CNTR_CODE": "NL", "NUTS_NAME": "NOORD-NEDERLAND", "LEVL_CODE": 1, "FID": "NL1", "NUTS_ID": "NL1"}, "id": "NL1"}, {"geometry": {"type": "Point", "coordinates": [5.9995, 52.2953]}, "type": "Feature", "properties": {"CNTR_CODE": "NL", "NUTS_NAME": "OOST-NEDERLAND", "LEVL_CODE": 1, "FID": "NL2", "NUTS_ID": "NL2"}, "id": "NL2"}, {"geometry": {"type": "Point", "coordinates": [4.7278, 52.1805]}, "type": "Feature", "properties": {"CNTR_CODE": "NL", "NUTS_NAME": "WEST-NEDERLAND", "LEVL_CODE": 1, "FID": "NL3", "NUTS_ID": "NL3"}, "id": "NL3"}, {"geometry": {"type": "Point", "coordinates": [5.4154, 51.4562]}, "type": "Feature", "properties": {"CNTR_CODE": "NL", "NUTS_NAME": "ZUID-NEDERLAND", "LEVL_CODE": 1, "FID": "NL4", "NUTS_ID": "NL4"}, "id": "NL4"}, {"geometry": {"type": "Point", "coordinates": [11.4948, 61.7103]}, "type": "Feature", "properties": {"CNTR_CODE": "NO", "NUTS_NAME": "NORGE", "LEVL_CODE": 1, "FID": "NO0", "NUTS_ID": "NO0"}, "id": "NO0"}, {"geometry": {"type": "Point", "coordinates": [19.6955, 50.0734]}, "type": "Feature", "properties": {"CNTR_CODE": "PL", "NUTS_NAME": "MAKROREGION PO\u0141UDNIOWY", "LEVL_CODE": 1, "FID": "PL2", "NUTS_ID": "PL2"}, "id": "PL2"}, {"geometry": {"type": "Point", "coordinates": [16.2697, 52.7258]}, "type": "Feature", "properties": {"CNTR_CODE": "PL", "NUTS_NAME": "MAKROREGION P\u00d3\u0141NOCNO-ZACHODNI", "LEVL_CODE": 1, "FID": "PL4", "NUTS_ID": "PL4"}, "id": "PL4"}, {"geometry": {"type": "Point", "coordinates": [16.8902, 50.959]}, "type": "Feature", "properties": {"CNTR_CODE": "PL", "NUTS_NAME": "MAKROREGION PO\u0141UDNIOWO-ZACHODNI", "LEVL_CODE": 1, "FID": "PL5", "NUTS_ID": "PL5"}, "id": "PL5"}, {"geometry": {"type": "Point", "coordinates": [18.2223, 53.6879]}, "type": "Feature", "properties": {"CNTR_CODE": "PL", "NUTS_NAME": "MAKROREGION P\u00d3\u0141NOCNY", "LEVL_CODE": 1, "FID": "PL6", "NUTS_ID": "PL6"}, "id": "PL6"}, {"geometry": {"type": "Point", "coordinates": [19.9395, 51.2825]}, "type": "Feature", "properties": {"CNTR_CODE": "PL", "NUTS_NAME": "MAKROREGION CENTRALNY", "LEVL_CODE": 1, "FID": "PL7", "NUTS_ID": "PL7"}, "id": "PL7"}, {"geometry": {"type": "Point", "coordinates": [22.6288, 50.58]}, "type": "Feature", "properties": {"CNTR_CODE": "PL", "NUTS_NAME": "MAKROREGION WSCHODNI", "LEVL_CODE": 1, "FID": "PL8", "NUTS_ID": "PL8"}, "id": "PL8"}, {"geometry": {"type": "Point", "coordinates": [21.0921, 52.3675]}, "type": "Feature", "properties": {"CNTR_CODE": "PL", "NUTS_NAME": "MAKROREGION WOJEW\u00d3DZTWO MAZOWIECKIE", "LEVL_CODE": 1, "FID": "PL9", "NUTS_ID": "PL9"}, "id": "PL9"}, {"geometry": {"type": "Point", "coordinates": [-7.9703, 39.6868]}, "type": "Feature", "properties": {"CNTR_CODE": "PT", "NUTS_NAME": "CONTINENTE", "LEVL_CODE": 1, "FID": "PT1", "NUTS_ID": "PT1"}, "id": "PT1"}, {"geometry": {"type": "Point", "coordinates": [-25.3659, 37.7846]}, "type": "Feature", "properties": {"CNTR_CODE": "PT", "NUTS_NAME": "REGI\u00c3O AUT\u00d3NOMA DOS A\u00c7ORES", "LEVL_CODE": 1, "FID": "PT2", "NUTS_ID": "PT2"}, "id": "PT2"}, {"geometry": {"type": "Point", "coordinates": [-16.9503, 32.7326]}, "type": "Feature", "properties": {"CNTR_CODE": "PT", "NUTS_NAME": "REGI\u00c3O AUT\u00d3NOMA DA MADEIRA", "LEVL_CODE": 1, "FID": "PT3", "NUTS_ID": "PT3"}, "id": "PT3"}, {"geometry": {"type": "Point", "coordinates": [24.0679, 46.7109]}, "type": "Feature", "properties": {"CNTR_CODE": "RO", "NUTS_NAME": "MACROREGIUNEA UNU", "LEVL_CODE": 1, "FID": "RO1", "NUTS_ID": "RO1"}, "id": "RO1"}, {"geometry": {"type": "Point", "coordinates": [27.2368, 46.1422]}, "type": "Feature", "properties": {"CNTR_CODE": "RO", "NUTS_NAME": "MACROREGIUNEA DOI", "LEVL_CODE": 1, "FID": "RO2", "NUTS_ID": "RO2"}, "id": "RO2"}, {"geometry": {"type": "Point", "coordinates": [25.8887, 44.5999]}, "type": "Feature", "properties": {"CNTR_CODE": "RO", "NUTS_NAME": "MACROREGIUNEA TREI", "LEVL_CODE": 1, "FID": "RO3", "NUTS_ID": "RO3"}, "id": "RO3"}, {"geometry": {"type": "Point", "coordinates": [22.793, 45.1822]}, "type": "Feature", "properties": {"CNTR_CODE": "RO", "NUTS_NAME": "MACROREGIUNEA PATRU", "LEVL_CODE": 1, "FID": "RO4", "NUTS_ID": "RO4"}, "id": "RO4"}, {"geometry": {"type": "Point", "coordinates": [20.1296, 45.3065]}, "type": "Feature", "properties": {"CNTR_CODE": "RS", "NUTS_NAME": "\u0421\u0440\u0431\u0438\u0458\u0430 - \u0441\u0435\u0432\u0435\u0440 ", "LEVL_CODE": 1, "FID": "RS1", "NUTS_ID": "RS1"}, "id": "RS1"}, {"geometry": {"type": "Point", "coordinates": [21.1282, 43.7155]}, "type": "Feature", "properties": {"CNTR_CODE": "RS", "NUTS_NAME": "\u0421\u0440\u0431\u0438\u0458\u0430 - \u0458\u0443\u0433 ", "LEVL_CODE": 1, "FID": "RS2", "NUTS_ID": "RS2"}, "id": "RS2"}, {"geometry": {"type": "Point", "coordinates": [16.3811, 59.264]}, "type": "Feature", "properties": {"CNTR_CODE": "SE", "NUTS_NAME": "\u00d6STRA SVERIGE", "LEVL_CODE": 1, "FID": "SE1", "NUTS_ID": "SE1"}, "id": "SE1"}, {"geometry": {"type": "Point", "coordinates": [13.8937, 57.4031]}, "type": "Feature", "properties": {"CNTR_CODE": "SE", "NUTS_NAME": "S\u00d6DRA SVERIGE", "LEVL_CODE": 1, "FID": "SE2", "NUTS_ID": "SE2"}, "id": "SE2"}, {"geometry": {"type": "Point", "coordinates": [17.9907, 65.4426]}, "type": "Feature", "properties": {"CNTR_CODE": "SE", "NUTS_NAME": "NORRA SVERIGE", "LEVL_CODE": 1, "FID": "SE3", "NUTS_ID": "SE3"}, "id": "SE3"}, {"geometry": {"type": "Point", "coordinates": [14.8169, 46.1277]}, "type": "Feature", "properties": {"CNTR_CODE": "SI", "NUTS_NAME": "SLOVENIJA", "LEVL_CODE": 1, "FID": "SI0", "NUTS_ID": "SI0"}, "id": "SI0"}, {"geometry": {"type": "Point", "coordinates": [19.4741, 48.7042]}, "type": "Feature", "properties": {"CNTR_CODE": "SK", "NUTS_NAME": "SLOVENSKO", "LEVL_CODE": 1, "FID": "SK0", "NUTS_ID": "SK0"}, "id": "SK0"}, {"geometry": {"type": "Point", "coordinates": [28.4372, 41.2186]}, "type": "Feature", "properties": {"CNTR_CODE": "TR", "NUTS_NAME": "ISTANBUL", "LEVL_CODE": 1, "FID": "TR1", "NUTS_ID": "TR1"}, "id": "TR1"}, {"geometry": {"type": "Point", "coordinates": [27.5552, 39.8295]}, "type": "Feature", "properties": {"CNTR_CODE": "TR", "NUTS_NAME": "BATI MARMARA", "LEVL_CODE": 1, "FID": "TR2", "NUTS_ID": "TR2"}, "id": "TR2"}, {"geometry": {"type": "Point", "coordinates": [28.9162, 38.3116]}, "type": "Feature", "properties": {"CNTR_CODE": "TR", "NUTS_NAME": "EGE", "LEVL_CODE": 1, "FID": "TR3", "NUTS_ID": "TR3"}, "id": "TR3"}, {"geometry": {"type": "Point", "coordinates": [30.4583, 40.2257]}, "type": "Feature", "properties": {"CNTR_CODE": "TR", "NUTS_NAME": "DOGU MARMARA", "LEVL_CODE": 1, "FID": "TR4", "NUTS_ID": "TR4"}, "id": "TR4"}, {"geometry": {"type": "Point", "coordinates": [32.6695, 38.5109]}, "type": "Feature", "properties": {"CNTR_CODE": "TR", "NUTS_NAME": "BATI ANADOLU", "LEVL_CODE": 1, "FID": "TR5", "NUTS_ID": "TR5"}, "id": "TR5"}, {"geometry": {"type": "Point", "coordinates": [33.4793, 36.5454]}, "type": "Feature", "properties": {"CNTR_CODE": "TR", "NUTS_NAME": "AKDENIZ", "LEVL_CODE": 1, "FID": "TR6", "NUTS_ID": "TR6"}, "id": "TR6"}, {"geometry": {"type": "Point", "coordinates": [35.6542, 39.1198]}, "type": "Feature", "properties": {"CNTR_CODE": "TR", "NUTS_NAME": "ORTA ANADOLU", "LEVL_CODE": 1, "FID": "TR7", "NUTS_ID": "TR7"}, "id": "TR7"}, {"geometry": {"type": "Point", "coordinates": [34.5682, 40.997]}, "type": "Feature", "properties": {"CNTR_CODE": "TR", "NUTS_NAME": "BATI KARADENIZ", "LEVL_CODE": 1, "FID": "TR8", "NUTS_ID": "TR8"}, "id": "TR8"}, {"geometry": {"type": "Point", "coordinates": [39.6499, 40.7675]}, "type": "Feature", "properties": {"CNTR_CODE": "TR", "NUTS_NAME": "DOGU KARADENIZ", "LEVL_CODE": 1, "FID": "TR9", "NUTS_ID": "TR9"}, "id": "TR9"}, {"geometry": {"type": "Point", "coordinates": [41.8165, 40.0453]}, "type": "Feature", "properties": {"CNTR_CODE": "TR", "NUTS_NAME": "KUZEYDOGU ANADOLU", "LEVL_CODE": 1, "FID": "TRA", "NUTS_ID": "TRA"}, "id": "TRA"}, {"geometry": {"type": "Point", "coordinates": [42.9302, 38.4148]}, "type": "Feature", "properties": {"CNTR_CODE": "TR", "NUTS_NAME": "ORTADOGU ANADOLU", "LEVL_CODE": 1, "FID": "TRB", "NUTS_ID": "TRB"}, "id": "TRB"}, {"geometry": {"type": "Point", "coordinates": [39.9543, 37.5691]}, "type": "Feature", "properties": {"CNTR_CODE": "TR", "NUTS_NAME": "G\u00dcNEYDOGU ANADOLU", "LEVL_CODE": 1, "FID": "TRC", "NUTS_ID": "TRC"}, "id": "TRC"}, {"geometry": {"type": "Point", "coordinates": [-1.8954, 55.0288]}, "type": "Feature", "properties": {"CNTR_CODE": "UK", "NUTS_NAME": "NORTH EAST (ENGLAND)", "LEVL_CODE": 1, "FID": "UKC", "NUTS_ID": "UKC"}, "id": "UKC"}, {"geometry": {"type": "Point", "coordinates": [-3.1445, 54.5081]}, "type": "Feature", "properties": {"CNTR_CODE": "UK", "NUTS_NAME": "NORTH WEST (ENGLAND)", "LEVL_CODE": 1, "FID": "UKD", "NUTS_ID": "UKD"}, "id": "UKD"}, {"geometry": {"type": "Point", "coordinates": [-1.2945, 53.9865]}, "type": "Feature", "properties": {"CNTR_CODE": "UK", "NUTS_NAME": "YORKSHIRE AND THE HUMBER", "LEVL_CODE": 1, "FID": "UKE", "NUTS_ID": "UKE"}, "id": "UKE"}, {"geometry": {"type": "Point", "coordinates": [-0.8249, 52.9216]}, "type": "Feature", "properties": {"CNTR_CODE": "UK", "NUTS_NAME": "EAST MIDLANDS (ENGLAND)", "LEVL_CODE": 1, "FID": "UKF", "NUTS_ID": "UKF"}, "id": "UKF"}, {"geometry": {"type": "Point", "coordinates": [-2.2577, 52.4833]}, "type": "Feature", "properties": {"CNTR_CODE": "UK", "NUTS_NAME": "WEST MIDLANDS (ENGLAND)", "LEVL_CODE": 1, "FID": "UKG", "NUTS_ID": "UKG"}, "id": "UKG"}, {"geometry": {"type": "Point", "coordinates": [0.5219, 52.2646]}, "type": "Feature", "properties": {"CNTR_CODE": "UK", "NUTS_NAME": "EAST OF ENGLAND", "LEVL_CODE": 1, "FID": "UKH", "NUTS_ID": "UKH"}, "id": "UKH"}, {"geometry": {"type": "Point", "coordinates": [-0.0983, 51.4149]}, "type": "Feature", "properties": {"CNTR_CODE": "UK", "NUTS_NAME": "LONDON", "LEVL_CODE": 1, "FID": "UKI", "NUTS_ID": "UKI"}, "id": "UKI"}, {"geometry": {"type": "Point", "coordinates": [-1.125, 51.4257]}, "type": "Feature", "properties": {"CNTR_CODE": "UK", "NUTS_NAME": "SOUTH EAST (ENGLAND)", "LEVL_CODE": 1, "FID": "UKJ", "NUTS_ID": "UKJ"}, "id": "UKJ"}, {"geometry": {"type": "Point", "coordinates": [-2.4879, 51.2108]}, "type": "Feature", "properties": {"CNTR_CODE": "UK", "NUTS_NAME": "SOUTH WEST (ENGLAND)", "LEVL_CODE": 1, "FID": "UKK", "NUTS_ID": "UKK"}, "id": "UKK"}, {"geometry": {"type": "Point", "coordinates": [-3.6942, 52.3015]}, "type": "Feature", "properties": {"CNTR_CODE": "UK", "NUTS_NAME": "WALES", "LEVL_CODE": 1, "FID": "UKL", "NUTS_ID": "UKL"}, "id": "UKL"}, {"geometry": {"type": "Point", "coordinates": [-4.0265, 56.5484]}, "type": "Feature", "properties": {"CNTR_CODE": "UK", "NUTS_NAME": "SCOTLAND", "LEVL_CODE": 1, "FID": "UKM", "NUTS_ID": "UKM"}, "id": "UKM"}, {"geometry": {"type": "Point", "coordinates": [-6.6253, 54.6306]}, "type": "Feature", "properties": {"CNTR_CODE": "UK", "NUTS_NAME": "NORTHERN IRELAND", "LEVL_CODE": 1, "FID": "UKN", "NUTS_ID": "UKN"}, "id": "UKN"}, {"geometry": {"type": "Point", "coordinates": [19.9783, 41.9425]}, "type": "Feature", "properties": {"CNTR_CODE": "AL", "NUTS_NAME": "Veri", "LEVL_CODE": 2, "FID": "AL01", "NUTS_ID": "AL01"}, "id": "AL01"}, {"geometry": {"type": "Point", "coordinates": [20.0573, 41.1369]}, "type": "Feature", "properties": {"CNTR_CODE": "AL", "NUTS_NAME": "Qender", "LEVL_CODE": 2, "FID": "AL02", "NUTS_ID": "AL02"}, "id": "AL02"}, {"geometry": {"type": "Point", "coordinates": [20.1546, 40.4698]}, "type": "Feature", "properties": {"CNTR_CODE": "AL", "NUTS_NAME": "Jug", "LEVL_CODE": 2, "FID": "AL03", "NUTS_ID": "AL03"}, "id": "AL03"}, {"geometry": {"type": "Point", "coordinates": [16.2874, 47.2361]}, "type": "Feature", "properties": {"CNTR_CODE": "AT", "NUTS_NAME": "Burgenland", "LEVL_CODE": 2, "FID": "AT11", "NUTS_ID": "AT11"}, "id": "AT11"}, {"geometry": {"type": "Point", "coordinates": [15.7601, 48.2589]}, "type": "Feature", "properties": {"CNTR_CODE": "AT", "NUTS_NAME": "Nieder\u00f6sterreich", "LEVL_CODE": 2, "FID": "AT12", "NUTS_ID": "AT12"}, "id": "AT12"}, {"geometry": {"type": "Point", "coordinates": [16.3932, 48.2028]}, "type": "Feature", "properties": {"CNTR_CODE": "AT", "NUTS_NAME": "Wien", "LEVL_CODE": 2, "FID": "AT13", "NUTS_ID": "AT13"}, "id": "AT13"}, {"geometry": {"type": "Point", "coordinates": [14.4629, 46.7161]}, "type": "Feature", "properties": {"CNTR_CODE": "AT", "NUTS_NAME": "K\u00e4rnten", "LEVL_CODE": 2, "FID": "AT21", "NUTS_ID": "AT21"}, "id": "AT21"}, {"geometry": {"type": "Point", "coordinates": [15.5247, 47.1818]}, "type": "Feature", "properties": {"CNTR_CODE": "AT", "NUTS_NAME": "Steiermark", "LEVL_CODE": 2, "FID": "AT22", "NUTS_ID": "AT22"}, "id": "AT22"}, {"geometry": {"type": "Point", "coordinates": [13.9503, 48.143]}, "type": "Feature", "properties": {"CNTR_CODE": "AT", "NUTS_NAME": "Ober\u00f6sterreich", "LEVL_CODE": 2, "FID": "AT31", "NUTS_ID": "AT31"}, "id": "AT31"}, {"geometry": {"type": "Point", "coordinates": [13.0002, 47.2823]}, "type": "Feature", "properties": {"CNTR_CODE": "AT", "NUTS_NAME": "Salzburg", "LEVL_CODE": 2, "FID": "AT32", "NUTS_ID": "AT32"}, "id": "AT32"}, {"geometry": {"type": "Point", "coordinates": [10.7635, 47.1809]}, "type": "Feature", "properties": {"CNTR_CODE": "AT", "NUTS_NAME": "Tirol", "LEVL_CODE": 2, "FID": "AT33", "NUTS_ID": "AT33"}, "id": "AT33"}, {"geometry": {"type": "Point", "coordinates": [9.8851, 47.2366]}, "type": "Feature", "properties": {"CNTR_CODE": "AT", "NUTS_NAME": "Vorarlberg", "LEVL_CODE": 2, "FID": "AT34", "NUTS_ID": "AT34"}, "id": "AT34"}, {"geometry": {"type": "Point", "coordinates": [4.3569, 50.8401]}, "type": "Feature", "properties": {"CNTR_CODE": "BE", "NUTS_NAME": "R\u00e9gion de Bruxelles-Capitale/ Brussels Hoofdstedelijk Gewest", "LEVL_CODE": 2, "FID": "BE10", "NUTS_ID": "BE10"}, "id": "BE10"}, {"geometry": {"type": "Point", "coordinates": [4.7245, 51.2212]}, "type": "Feature", "properties": {"CNTR_CODE": "BE", "NUTS_NAME": "Prov. Antwerpen", "LEVL_CODE": 2, "FID": "BE21", "NUTS_ID": "BE21"}, "id": "BE21"}, {"geometry": {"type": "Point", "coordinates": [5.4121, 50.9817]}, "type": "Feature", "properties": {"CNTR_CODE": "BE", "NUTS_NAME": "Prov. Limburg (BE)", "LEVL_CODE": 2, "FID": "BE22", "NUTS_ID": "BE22"}, "id": "BE22"}, {"geometry": {"type": "Point", "coordinates": [3.8091, 51.0316]}, "type": "Feature", "properties": {"CNTR_CODE": "BE", "NUTS_NAME": "Prov. Oost-Vlaanderen", "LEVL_CODE": 2, "FID": "BE23", "NUTS_ID": "BE23"}, "id": "BE23"}, {"geometry": {"type": "Point", "coordinates": [4.5725, 50.8737]}, "type": "Feature", "properties": {"CNTR_CODE": "BE", "NUTS_NAME": "Prov. Vlaams-Brabant", "LEVL_CODE": 2, "FID": "BE24", "NUTS_ID": "BE24"}, "id": "BE24"}, {"geometry": {"type": "Point", "coordinates": [3.0517, 51.0178]}, "type": "Feature", "properties": {"CNTR_CODE": "BE", "NUTS_NAME": "Prov. West-Vlaanderen", "LEVL_CODE": 2, "FID": "BE25", "NUTS_ID": "BE25"}, "id": "BE25"}, {"geometry": {"type": "Point", "coordinates": [4.5923, 50.6659]}, "type": "Feature", "properties": {"CNTR_CODE": "BE", "NUTS_NAME": "Prov. Brabant Wallon", "LEVL_CODE": 2, "FID": "BE31", "NUTS_ID": "BE31"}, "id": "BE31"}, {"geometry": {"type": "Point", "coordinates": [3.917, 50.5255]}, "type": "Feature", "properties": {"CNTR_CODE": "BE", "NUTS_NAME": "Prov. Hainaut", "LEVL_CODE": 2, "FID": "BE32", "NUTS_ID": "BE32"}, "id": "BE32"}, {"geometry": {"type": "Point", "coordinates": [5.731, 50.5203]}, "type": "Feature", "properties": {"CNTR_CODE": "BE", "NUTS_NAME": "Prov. Li\u00e8ge", "LEVL_CODE": 2, "FID": "BE33", "NUTS_ID": "BE33"}, "id": "BE33"}, {"geometry": {"type": "Point", "coordinates": [5.5211, 49.9568]}, "type": "Feature", "properties": {"CNTR_CODE": "BE", "NUTS_NAME": "Prov. Luxembourg (BE)", "LEVL_CODE": 2, "FID": "BE34", "NUTS_ID": "BE34"}, "id": "BE34"}, {"geometry": {"type": "Point", "coordinates": [4.867, 50.2736]}, "type": "Feature", "properties": {"CNTR_CODE": "BE", "NUTS_NAME": "Prov. Namur", "LEVL_CODE": 2, "FID": "BE35", "NUTS_ID": "BE35"}, "id": "BE35"}, {"geometry": {"type": "Point", "coordinates": [23.8763, 43.4201]}, "type": "Feature", "properties": {"CNTR_CODE": "BG", "NUTS_NAME": "\u0421\u0435\u0432\u0435\u0440\u043e\u0437\u0430\u043f\u0430\u0434\u0435\u043d", "LEVL_CODE": 2, "FID": "BG31", "NUTS_ID": "BG31"}, "id": "BG31"}, {"geometry": {"type": "Point", "coordinates": [25.593, 43.2223]}, "type": "Feature", "properties": {"CNTR_CODE": "BG", "NUTS_NAME": "\u0421\u0435\u0432\u0435\u0440\u0435\u043d \u0446\u0435\u043d\u0442\u0440\u0430\u043b\u0435\u043d", "LEVL_CODE": 2, "FID": "BG32", "NUTS_ID": "BG32"}, "id": "BG32"}, {"geometry": {"type": "Point", "coordinates": [27.3512, 43.3648]}, "type": "Feature", "properties": {"CNTR_CODE": "BG", "NUTS_NAME": "\u0421\u0435\u0432\u0435\u0440\u043e\u0438\u0437\u0442\u043e\u0447\u0435\u043d", "LEVL_CODE": 2, "FID": "BG33", "NUTS_ID": "BG33"}, "id": "BG33"}, {"geometry": {"type": "Point", "coordinates": [26.5534, 42.4799]}, "type": "Feature", "properties": {"CNTR_CODE": "BG", "NUTS_NAME": "\u042e\u0433\u043e\u0438\u0437\u0442\u043e\u0447\u0435\u043d", "LEVL_CODE": 2, "FID": "BG34", "NUTS_ID": "BG34"}, "id": "BG34"}, {"geometry": {"type": "Point", "coordinates": [23.3357, 42.3235]}, "type": "Feature", "properties": {"CNTR_CODE": "BG", "NUTS_NAME": "\u042e\u0433\u043e\u0437\u0430\u043f\u0430\u0434\u0435\u043d", "LEVL_CODE": 2, "FID": "BG41", "NUTS_ID": "BG41"}, "id": "BG41"}, {"geometry": {"type": "Point", "coordinates": [25.1669, 41.7421]}, "type": "Feature", "properties": {"CNTR_CODE": "BG", "NUTS_NAME": "\u042e\u0436\u0435\u043d \u0446\u0435\u043d\u0442\u0440\u0430\u043b\u0435\u043d", "LEVL_CODE": 2, "FID": "BG42", "NUTS_ID": "BG42"}, "id": "BG42"}, {"geometry": {"type": "Point", "coordinates": [7.2169, 46.1381]}, "type": "Feature", "properties": {"CNTR_CODE": "CH", "NUTS_NAME": "R\u00e9gion l\u00e9manique", "LEVL_CODE": 2, "FID": "CH01", "NUTS_ID": "CH01"}, "id": "CH01"}, {"geometry": {"type": "Point", "coordinates": [7.4335, 46.9075]}, "type": "Feature", "properties": {"CNTR_CODE": "CH", "NUTS_NAME": "Espace Mittelland", "LEVL_CODE": 2, "FID": "CH02", "NUTS_ID": "CH02"}, "id": "CH02"}, {"geometry": {"type": "Point", "coordinates": [8.1976, 47.4201]}, "type": "Feature", "properties": {"CNTR_CODE": "CH", "NUTS_NAME": "Nordwestschweiz", "LEVL_CODE": 2, "FID": "CH03", "NUTS_ID": "CH03"}, "id": "CH03"}, {"geometry": {"type": "Point", "coordinates": [8.6461, 47.4074]}, "type": "Feature", "properties": {"CNTR_CODE": "CH", "NUTS_NAME": "Z\u00fcrich", "LEVL_CODE": 2, "FID": "CH04", "NUTS_ID": "CH04"}, "id": "CH04"}, {"geometry": {"type": "Point", "coordinates": [9.5701, 46.7402]}, "type": "Feature", "properties": {"CNTR_CODE": "CH", "NUTS_NAME": "Ostschweiz", "LEVL_CODE": 2, "FID": "CH05", "NUTS_ID": "CH05"}, "id": "CH05"}, {"geometry": {"type": "Point", "coordinates": [8.44, 46.9706]}, "type": "Feature", "properties": {"CNTR_CODE": "CH", "NUTS_NAME": "Zentralschweiz", "LEVL_CODE": 2, "FID": "CH06", "NUTS_ID": "CH06"}, "id": "CH06"}, {"geometry": {"type": "Point", "coordinates": [8.8082, 46.3045]}, "type": "Feature", "properties": {"CNTR_CODE": "CH", "NUTS_NAME": "Ticino", "LEVL_CODE": 2, "FID": "CH07", "NUTS_ID": "CH07"}, "id": "CH07"}, {"geometry": {"type": "Point", "coordinates": [33.1739, 35.0284]}, "type": "Feature", "properties": {"CNTR_CODE": "CY", "NUTS_NAME": "\u039a\u03cd\u03c0\u03c1\u03bf\u03c2", "LEVL_CODE": 2, "FID": "CY00", "NUTS_ID": "CY00"}, "id": "CY00"}, {"geometry": {"type": "Point", "coordinates": [14.463, 50.0663]}, "type": "Feature", "properties": {"CNTR_CODE": "CZ", "NUTS_NAME": "Praha", "LEVL_CODE": 2, "FID": "CZ01", "NUTS_ID": "CZ01"}, "id": "CZ01"}, {"geometry": {"type": "Point", "coordinates": [14.4549, 49.7423]}, "type": "Feature", "properties": {"CNTR_CODE": "CZ", "NUTS_NAME": "St\u0159edn\u00ed \u010cechy", "LEVL_CODE": 2, "FID": "CZ02", "NUTS_ID": "CZ02"}, "id": "CZ02"}, {"geometry": {"type": "Point", "coordinates": [13.9941, 49.1276]}, "type": "Feature", "properties": {"CNTR_CODE": "CZ", "NUTS_NAME": "Jihoz\u00e1pad", "LEVL_CODE": 2, "FID": "CZ03", "NUTS_ID": "CZ03"}, "id": "CZ03"}, {"geometry": {"type": "Point", "coordinates": [13.4304, 50.3978]}, "type": "Feature", "properties": {"CNTR_CODE": "CZ", "NUTS_NAME": "Severoz\u00e1pad", "LEVL_CODE": 2, "FID": "CZ04", "NUTS_ID": "CZ04"}, "id": "CZ04"}, {"geometry": {"type": "Point", "coordinates": [15.7801, 50.2782]}, "type": "Feature", "properties": {"CNTR_CODE": "CZ", "NUTS_NAME": "Severov\u00fdchod", "LEVL_CODE": 2, "FID": "CZ05", "NUTS_ID": "CZ05"}, "id": "CZ05"}, {"geometry": {"type": "Point", "coordinates": [16.1756, 49.2407]}, "type": "Feature", "properties": {"CNTR_CODE": "CZ", "NUTS_NAME": "Jihov\u00fdchod", "LEVL_CODE": 2, "FID": "CZ06", "NUTS_ID": "CZ06"}, "id": "CZ06"}, {"geometry": {"type": "Point", "coordinates": [17.4358, 49.539]}, "type": "Feature", "properties": {"CNTR_CODE": "CZ", "NUTS_NAME": "St\u0159edn\u00ed Morava", "LEVL_CODE": 2, "FID": "CZ07", "NUTS_ID": "CZ07"}, "id": "CZ07"}, {"geometry": {"type": "Point", "coordinates": [18.0098, 49.8029]}, "type": "Feature", "properties": {"CNTR_CODE": "CZ", "NUTS_NAME": "Moravskoslezsko", "LEVL_CODE": 2, "FID": "CZ08", "NUTS_ID": "CZ08"}, "id": "CZ08"}, {"geometry": {"type": "Point", "coordinates": [9.624, 49.0149]}, "type": "Feature", "properties": {"CNTR_CODE": "DE", "NUTS_NAME": "Stuttgart", "LEVL_CODE": 2, "FID": "DE11", "NUTS_ID": "DE11"}, "id": "DE11"}, {"geometry": {"type": "Point", "coordinates": [8.6727, 49.0144]}, "type": "Feature", "properties": {"CNTR_CODE": "DE", "NUTS_NAME": "Karlsruhe", "LEVL_CODE": 2, "FID": "DE12", "NUTS_ID": "DE12"}, "id": "DE12"}, {"geometry": {"type": "Point", "coordinates": [8.2189, 48.0237]}, "type": "Feature", "properties": {"CNTR_CODE": "DE", "NUTS_NAME": "Freiburg", "LEVL_CODE": 2, "FID": "DE13", "NUTS_ID": "DE13"}, "id": "DE13"}, {"geometry": {"type": "Point", "coordinates": [9.5041, 48.1316]}, "type": "Feature", "properties": {"CNTR_CODE": "DE", "NUTS_NAME": "T\u00fcbingen", "LEVL_CODE": 2, "FID": "DE14", "NUTS_ID": "DE14"}, "id": "DE14"}, {"geometry": {"type": "Point", "coordinates": [11.7436, 48.1065]}, "type": "Feature", "properties": {"CNTR_CODE": "DE", "NUTS_NAME": "Oberbayern", "LEVL_CODE": 2, "FID": "DE21", "NUTS_ID": "DE21"}, "id": "DE21"}, {"geometry": {"type": "Point", "coordinates": [12.8023, 48.7009]}, "type": "Feature", "properties": {"CNTR_CODE": "DE", "NUTS_NAME": "Niederbayern", "LEVL_CODE": 2, "FID": "DE22", "NUTS_ID": "DE22"}, "id": "DE22"}, {"geometry": {"type": "Point", "coordinates": [12.1142, 49.3959]}, "type": "Feature", "properties": {"CNTR_CODE": "DE", "NUTS_NAME": "Oberpfalz", "LEVL_CODE": 2, "FID": "DE23", "NUTS_ID": "DE23"}, "id": "DE23"}, {"geometry": {"type": "Point", "coordinates": [11.383, 50.0492]}, "type": "Feature", "properties": {"CNTR_CODE": "DE", "NUTS_NAME": "Oberfranken", "LEVL_CODE": 2, "FID": "DE24", "NUTS_ID": "DE24"}, "id": "DE24"}, {"geometry": {"type": "Point", "coordinates": [10.7811, 49.3524]}, "type": "Feature", "properties": {"CNTR_CODE": "DE", "NUTS_NAME": "Mittelfranken", "LEVL_CODE": 2, "FID": "DE25", "NUTS_ID": "DE25"}, "id": "DE25"}, {"geometry": {"type": "Point", "coordinates": [9.9396, 50.0119]}, "type": "Feature", "properties": {"CNTR_CODE": "DE", "NUTS_NAME": "Unterfranken", "LEVL_CODE": 2, "FID": "DE26", "NUTS_ID": "DE26"}, "id": "DE26"}, {"geometry": {"type": "Point", "coordinates": [10.5277, 48.168]}, "type": "Feature", "properties": {"CNTR_CODE": "DE", "NUTS_NAME": "Schwaben", "LEVL_CODE": 2, "FID": "DE27", "NUTS_ID": "DE27"}, "id": "DE27"},